property_id,subject_id,orderID,structure_type,property_sub_type,prop_type_clean,gla_sqft,bedrooms_main,bedrooms_additional,bedrooms_total,bathrooms_full,bathrooms_half,bathrooms_equivalent,close_price,close_date,address,city,state_province,postal_code,latitude,longitude,lot_size_sqft,year_built,basement_type,main_level_finished_area,levels,heating,cooling,has_missing_bed_data,bedroom_imputation_method,has_missing_bath_data,has_missing_prop_type,prop_type_mapping_method,has_missing_date_data,price_per_sqft,property_age,has_year_built,has_basement,has_cooling,has_lot_size
4,0,4762597,Detached,Detached,Detached,1500.0,3,0,3,3,0,3.0,674000.0,2025-01-13,463 Conservatory Dr,Kingston,Ontario,K7M 9C8,44.2325,-76.5901,3555.5,,Unfinished,,Two,Forced Air,Central Air,False,,False,False,detached-indicator,False,449.3333333333333,,False,True,True,True
6,0,4762597,Freehold Townhouse,Freehold Townhouse,Townhouse,1500.0,3,0,3,4,0,4.0,585000.0,2025-01-14,311 Janette St,Kingston,Ontario,K7P 0K8,44.2622,-76.5904,2622.0,,Fin W/O,,Two,Forced Air,Central Air,False,,False,False,townhouse-indicator,False,390.0,,False,True,True,True
8,0,4762597,Rural Resid,Rural Resid,Rural Property,1417.0,4,0,4,4,0,4.0,685000.0,2025-01-15,4056 Bath Rd,Kingston,Ontario,K7M 4Y4,44.2407,-76.6102,16672.0,,"Part Bsmt, Unfinished",,,Baseboard,None,False,,False,False,rural-indicator,False,483.4156669019054,,False,True,False,True
9,0,4762597,Detached,Detached,Detached,1300.0,3,0,3,2,0,2.0,495000.0,2025-01-15,786 HIGH GATE PARK Dr,Kingston,Ontario,K7M 5Z8,44.2489,-76.6045,6600.0,,Finished,,Two,Forced Air,None,False,,False,False,detached-indicator,False,380.7692307692308,,False,True,False,True
11,0,4762597,Detached,Detached,Detached,1250.0,5,0,5,2,0,2.0,567500.0,2025-01-17,784 Downing St,Kingston,Ontario,K7M 5N2,44.2492,-76.5968,7150.0,,Unfinished,,Two,Forced Air,Central Air,False,,False,False,detached-indicator,False,454.0,,False,True,True,True
13,0,4762597,Detached,Detached,Detached,1880.0,4,0,4,3,0,3.0,681000.0,2025-01-21,593 Roosevelt Dr,Kingston,Ontario,K7M 8T7,44.2346,-76.5871,6936.0,,Finished,,One,Forced Air,Central Air,False,,False,False,detached-indicator,False,362.2340425531915,,False,True,True,True
15,0,4762597,Detached,Detached,Detached,2000.0,4,0,4,3,1,3.5,807000.0,2025-01-23,657 Gwen Ave,Kingston,Ontario,K7P 0M2,44.2649,-76.5904,4038.0,,Fin W/O,,Two,Forced Air,Central Air,False,,False,False,detached-indicator,False,403.5,,False,True,True,True
17,0,4762597,Freehold Townhouse,Freehold Townhouse,Townhouse,1550.0,3,0,3,3,0,3.0,572999.0,2025-01-24,1341 TREMONT Dr,Kingston,Ontario,K7P 0M5,44.2661,-76.5911,2099.98,,"Finished, Full",,Two,Forced Air,Central Air,False,,False,False,townhouse-indicator,False,369.6767741935484,,False,True,True,True
21,0,4762597,Detached,Detached,Detached,900.0,2,0,2,2,0,2.0,542000.0,2025-01-25,1028 Bauder Cres,Kingston ,Ontario,K7P 1M6,44.2576,-76.5861,8250.0,40.0,Fin W/O ,,Bungalow-Raised ,Forced Air ,Central Air ,False,,False,False,detached-indicator,False,602.2222222222222,1985.0,True,True,True,True
22,0,4762597,Detached,Detached,Detached,1750.0,3,0,3,4,0,4.0,740000.0,2025-01-25,1040 Earnhart St,Kingston,Ontario,K7P 3B9,44.2587,-76.6071,5650.0,,Finished,,Two,Forced Air,Central Air,False,,False,False,detached-indicator,False,422.85714285714283,,False,True,True,True
25,0,4762597,"Detached, 2-Storey ",Detached,Detached,1604.0,3,0,3,0,0,0.0,595000.0,2025-01-27,994 WESTMINSTER Place ,Kingston ,Ontario,K7P 1R1,44.2526,-76.5912,5635.0,,"Finished, Full ",,2-Storey ,Forced Air ,Central Air ,False,,True,False,detached-indicator,False,370.9476309226933,,False,True,True,True
26,0,4762597,Detached,Detached,Detached,1850.0,3,0,3,4,0,4.0,745000.0,2025-01-28,2138 Balantrae Circ,Kingston,Ontario,K7M 9H8,44.2331,-76.5906,3845.06,,"Finished, Full",,Two,Forced Air,Central Air,False,,False,False,detached-indicator,False,402.7027027027027,,False,True,True,True
28,0,4762597,Semi-Detached,Semi-Detached,Semi-Detached,1252.0,3,0,3,1,1,1.5,465000.0,2025-01-29,692 Truedell Rd,Kingston,Ontario,K7M 6T2,44.2462,-76.5788,3775.5,,"Full, Part Fin",,Two,Forced Air,Central Air,False,,False,False,semi-detached-indicator,False,371.40575079872207,,False,True,True,True
30,0,4762597,Detached,Detached,Detached,1300.0,3,0,3,2,0,2.0,595000.0,2025-01-30,728 Sussex Blvd,Kingston,Ontario,K7M 5B1,44.2467,-76.5959,7800.0,,"Part Bsmt, W/O",,3.0,Forced Air,Central Air,False,,False,False,detached-indicator,False,457.6923076923077,,False,True,True,True
32,0,4762597,"Condo Townhouse, 2-Storey ",Condo Townhouse,Condominium,1100.0,3,0,3,0,0,0.0,375000.0,2025-01-31,Unit 51 - 808 Datzell Lane,Kingston ,Ontario,K7M 7R6,44.25,-76.5903,1888.8,,Unfinished ,,2-Storey ,Forced Air ,Central Air ,False,,True,False,condo-indicator,False,340.90909090909093,,False,True,True,False
33,0,4762597,Detached,Detached,Detached,2700.0,3,0,3,3,0,3.0,935000.0,2025-01-31,1126 Dunham St,Kingston,Ontario,K7P 2L4,44.2547,-76.5988,7050.0,,Fin W/O,,Two,Forced Air,Central Air,False,,False,False,detached-indicator,False,346.2962962962963,,False,True,True,True
38,0,4762597,Detached,Detached,Detached,1500.0,2,0,2,2,0,2.0,580000.0,2025-02-04,661 Roosevelt Dr,Kingston,Ontario,K7M 8T8,44.2326,-76.5884,6000.0,,"Full, Unfinished",,One,Forced Air,Central Air,False,,False,False,detached-indicator,False,386.6666666666667,,False,True,True,True
39,0,4762597,Semi-Detached,Semi-Detached,Semi-Detached,1501.0,3,0,3,2,0,2.0,550000.0,2025-02-04,657 Barnsley Cres,Kingston,Ontario,K7M 8X4,44.2319,-76.5967,4867.56,,Fin W/O,,Two,Forced Air,Central Air,False,,False,False,semi-detached-indicator,False,366.42238507661557,,False,True,True,True
40,0,4762597,Detached,Detached,Detached,1616.0,3,0,3,2,1,2.5,762000.0,2025-02-04,418 Conservatory Dr,Kingston,Ontario,K7M 9C7,44.2319,-76.5915,3650.0,,"Finished, Full",,Two,Forced Air,Central Air,False,,False,False,detached-indicator,False,471.53465346534654,,False,True,True,True
44,0,4762597,Detached,Detached,Detached,1500.0,4,0,4,3,1,3.5,615000.0,2025-02-05,1001 Lombardy St,Kingston,Ontario,K7M 8M7,44.2394,-76.5895,6299.39,,Finished,,Two,Forced Air,Central Air,False,,False,False,detached-indicator,False,410.0,,False,True,True,True
45,0,4762597,Detached,Detached,Detached,1300.0,3,0,3,2,0,2.0,595000.0,2025-02-05,605 Truedell Rd ,Kingston ,Ontario,K7M 6S7,44.2422,-76.5804,5400.0,40.0,Finished ,,Backsplit 3 ,Forced Air ,Central Air ,False,,False,False,detached-indicator,False,457.6923076923077,1985.0,True,True,True,True
46,0,4762597,Condo Apt,Condo Apt,Condominium,550.0,1,0,1,1,0,1.0,253750.0,2025-02-05,Unit 108 - 835 Milford Dr ,Kingston ,Ontario,K7P 1A7,44.2508,-76.5839,1888.8,75.0,Apartment ,,Apartment ,Baseboard ,Window Unit ,False,,False,False,condo-indicator,False,461.3636363636364,1950.0,True,True,True,False
47,0,4762597,Condo Townhouse,Condo Townhouse,Condominium,1100.0,3,0,3,1,0,1.0,327000.0,2025-02-05,771 ASHWOOD Dr ,Kingston ,Ontario,K7M 6X7,44.2488,-76.5889,1888.8,40.0,Finished ,,2-Storey ,Forced Air ,Central Air ,False,,False,False,condo-indicator,False,297.27272727272725,1985.0,True,True,True,False
52,0,4762597,Detached,Detached,Detached,1300.0,3,0,3,2,0,2.0,570000.0,2025-02-07,494 Roosevelt Dr ,Kingston ,Ontario,K7M 4B1,44.2343,-76.5812,6900.0,40.0,"Finished, Full ",,Bungalow-Raised ,Forced Air ,Central Air ,False,,False,False,detached-indicator,False,438.46153846153845,1985.0,True,True,True,True
53,0,4762597,Detached,Detached,Detached,2470.0,4,0,4,4,0,4.0,875000.0,2025-02-07,393 Bernice Dr ,Kingston ,Ontario,K7M 5X2,44.2316,-76.5828,7500.0,40.0,"Finished, Full ",,2-Storey ,Forced Air ,Central Air ,False,,False,False,detached-indicator,False,354.251012145749,1985.0,True,True,True,True
54,0,4762597,Detached,Detached,Detached,2750.0,4,0,4,2,0,2.0,725000.0,2025-02-07,871 Crestwood Ave ,Kingston ,Ontario,K7P 1S7,44.2524,-76.6002,6500.0,40.0,"Unfinished, W/O ",,2-Storey ,Forced Air ,Central Air ,False,,False,False,detached-indicator,False,263.6363636363636,1985.0,True,True,True,True
58,0,4762597,Semi-Detached,Semi-Detached,Semi-Detached,1156.0,3,0,3,2,0,2.0,455000.0,2025-02-13,760 Grouse Cres ,Kingston ,Ontario,K7P 1A2,44.2493,-76.5827,6987.0,40.0,Fin W/O ,,Bungalow ,Forced Air ,Central Air ,False,,False,False,semi-detached-indicator,False,393.598615916955,1985.0,True,True,True,True
59,0,4762597,Detached,Detached,Detached,1493.0,3,0,3,2,0,2.0,500000.0,2025-02-13,698 Fleet St ,Kingston ,Ontario,K7M 5A5,44.2454,-76.5947,6600.0,,"Sep Entrance, Walk-Up ",,Backsplit 3 ,Forced Air ,Central Air ,False,,False,False,detached-indicator,False,334.8961821835231,,False,True,True,True
60,0,4762597,Condo Townhouse,Condo Townhouse,Condominium,1300.0,3,0,3,1,0,1.0,331000.0,2025-02-13,912 OAKVIEW St ,Kingston ,Ontario,K7M 6V6,44.2486,-76.5875,1888.8,,"Full, Unfinished ",,2-Storey ,Forced Air ,None,False,,False,False,condo-indicator,False,254.6153846153846,,False,True,False,False
66,0,4762597,Detached,Detached,Detached,1750.0,3,0,3,3,0,3.0,589000.0,2025-02-18,616 Pimlico Pl ,Kingston ,Ontario,K7M 5T8,44.241,-76.5864,9000.0,,"Finished, Full ",,Sidesplit 3 ,Forced Air ,Central Air ,False,,False,False,detached-indicator,False,336.57142857142856,,False,True,True,True
68,0,4762597,Detached,Detached,Detached,1335.0,3,0,3,2,0,2.0,637000.0,2025-02-19,792 Safari Dr ,Kingston ,Ontario,K7M 6X9,44.2516,-76.612,6600.0,40.0,Finished ,,Sidesplit 3 ,Forced Air ,Central Air ,False,,False,False,detached-indicator,False,477.15355805243445,1985.0,True,True,True,True
69,0,4762597,Detached,Detached,Detached,1300.0,3,0,3,2,0,2.0,505000.0,2025-02-20,667 Truedell Rd ,Kingston ,Ontario,K7M 6W6,44.2451,-76.5793,6500.0,40.0,Finished ,,2-Storey ,Forced Air ,None,False,,False,False,detached-indicator,False,388.46153846153845,1985.0,True,True,False,True
70,0,4762597,"Semi-Detached, Bungalow-Raised ",Semi-Detached,Semi-Detached,1750.0,4,0,4,0,0,0.0,550000.0,2025-02-24,995 Waterbury Crescent ,Kingston ,Ontario,K7M 8V5,44.2309,-76.59,3480.0,,"Finished, Full ",,Bungalow-Raised ,Forced Air ,Central Air ,False,,True,False,semi-detached-indicator,False,314.2857142857143,,False,True,True,True
71,0,4762597,"Condo Apartment, Apartment ",Condo Apartment,Condominium,1100.0,2,0,2,0,0,0.0,394500.0,2025-02-24,Unit 305 - 675 Davis Drive W ,Kingston ,Ontario,K7M 8L5,44.2548,-76.5668,1888.8,,None,,Apartment ,Baseboard ,Window Unit(s) ,False,,True,False,condo-indicator,False,358.6363636363636,,False,False,True,False
72,0,4762597,"Condo Apartment, Bachelor/Studio ",Condo Apartment,Condominium,250.0,0,0,0,0,0,0.0,187000.0,2025-02-25,Unit 101 - 1010 Pembridge Crescent ,Kingston ,Ontario,K7P 1A3,44.2507,-76.5851,1888.8,,None,,Bachelor/Studio ,Baseboard ,Wall Unit(s) ,False,,True,False,condo-indicator,False,748.0,,False,False,True,False
74,0,4762597,Detached,Detached,Detached,2814.0,4,0,4,4,0,4.0,686500.0,2025-03-04,530 Canterbury Cres ,Kingston ,Ontario,K7M 6X1,44.2354,-76.5833,9200.0,,Finished ,,2-Storey ,Forced Air ,Central Air ,False,,False,False,detached-indicator,False,243.9587775408671,,False,True,True,True
76,0,4762597,Detached,Detached,Detached,900.0,2,0,2,2,0,2.0,529000.0,2025-03-05,490 Kirkwood Rd ,Kingston ,Ontario,K7M 3X2,44.2353,-76.5729,7590.0,,"Finished, Full ",,Bungalow-Raised ,Forced Air ,Central Air ,False,,False,False,detached-indicator,False,587.7777777777778,,False,True,True,True
77,0,4762597,Detached,Detached,Detached,1750.0,3,0,3,2,0,2.0,585000.0,2025-03-05,829 Larchwood Cres ,Kingston ,Ontario,K7P 2P8,44.2656,-76.5826,4888.0,40.0,Finished ,,Sidesplit 3 ,Forced Air ,Central Air ,False,,False,False,detached-indicator,False,334.2857142857143,1985.0,True,True,True,True
80,0,4762597,"Condo Townhouse, 3-Storey ",Condo Townhouse,Condominium,1300.0,3,0,3,0,0,0.0,455000.0,2025-03-06,1097 Craig Lane ,Kingston ,Ontario,K7M 7W6,44.2501,-76.5923,1888.8,,Other ,,3-Storey ,Forced Air ,Central Air ,False,,True,False,condo-indicator,False,350.0,,False,True,True,False
81,0,4762597,"Semi-Detached, 2-Storey ",Semi-Detached,Semi-Detached,1300.0,3,0,3,0,0,0.0,479900.0,2025-03-06,633 Davis Drive ,Kingston ,Ontario,K7M 7Y6,44.2534,-76.5673,3132.0,,Finished ,,2-Storey ,Forced Air ,Central Air ,False,,True,False,semi-detached-indicator,False,369.15384615384613,,False,True,True,True
82,0,4762597,Detached,Detached,Detached,1750.0,3,0,3,4,0,4.0,662000.0,2025-03-08,1512 Crimson Cres ,Kingston ,Ontario,K7P 0H4,44.2645,-76.5958,3286.0,10.0,"Finished, Full ",,2-Storey ,Forced Air ,Central Air ,False,,False,True,detached-indicator,False,378.2857142857143,2015.0,True,True,True,True
84,0,4762597,"Semi-Detached, Backsplit 3 ",Semi-Detached,Semi-Detached,1273.0,4,0,4,0,0,0.0,475000.0,2025-03-11,842 Milford Drive ,Kingston ,Ontario,K7P 1A8,44.2519,-76.5833,4978.0,,"Full, Finished ",,Backsplit 3 ,Baseboard ,None,False,,True,False,semi-detached-indicator,False,373.13432835820896,,False,True,False,True
85,0,4762597,"Condo Townhouse, 2-Storey ",Condo Townhouse,Condominium,1300.0,3,0,3,0,0,0.0,425000.0,2025-03-12,880 Winchester Lane ,Kingston ,Ontario,K7P 2S6,44.258,-76.5784,1888.8,,Finished with Walk-Out ,,2-Storey ,Forced Air ,Central Air ,False,,True,False,condo-indicator,False,326.9230769230769,,False,True,True,False
86,0,4762597,"Detached, 2-Storey ",Detached,Detached,2250.0,4,0,4,0,0,0.0,720000.0,2025-03-13,269 HOLDEN Street ,Kingston ,Ontario,K7P 0L1,44.2642,-76.5902,4240.0,,"Unfinished, Full ",,2-Storey ,Forced Air ,Central Air ,False,,True,False,detached-indicator,False,320.0,,False,True,True,True
88,0,4762597,"Detached, Backsplit 3 ",Standard,Detached,1300.0,3,0,3,0,0,0.0,470000.0,2025-03-15,1097 Pinewood Place ,Kingston ,Ontario,K7P 1L1,44.262,-76.582,4983.5,,Finished ,,Backsplit 3 ,Heat Pump ,None,False,,True,False,detached-indicator,False,361.53846153846155,,False,True,False,False
89,0,4762597,"Detached, Bungalow-Raised ",Standard,Detached,1300.0,4,0,4,0,0,0.0,640000.0,2025-03-16,1105 Dunham Street ,Kingston ,Ontario,K7P 2K2,44.255,-76.6005,4983.5,,"Finished, Full ",,Bungalow-Raised ,Forced Air ,Central Air ,False,,True,False,detached-indicator,False,492.3076923076923,,False,True,True,False
90,0,4762597,"Detached, Bungalow-Raised ",Detached,Detached,1750.0,4,0,4,0,0,0.0,710000.0,2025-03-17,355 Tanglewood Drive ,Kingston ,Ontario,K7M 8T8,44.2323,-76.5879,6120.0,,"Finished, Full ",,Bungalow-Raised ,Forced Air ,Central Air ,False,,True,False,detached-indicator,False,405.7142857142857,,False,True,True,True
91,0,4762597,"Detached, Bungalow ",Standard,Detached,1300.0,3,0,3,0,0,0.0,425750.0,2025-03-17,792 Clark Crescent ,Kingston ,Ontario,K7M 6J4,44.2488,-76.6121,4983.5,,"Full, Partially Finished ",,Bungalow ,Forced Air ,Central Air ,False,,True,False,detached-indicator,False,327.5,,False,True,True,False
93,0,4762597,"Condo Apartment, 2-Storey ",Condo Apartment,Condominium,850.0,2,0,2,0,0,0.0,320000.0,2025-03-17,Unit 307 - 835 Milford Drive ,Kingston ,Ontario,K7P 1A7,44.2508,-76.5839,1888.8,,None,,2-Storey ,Baseboard ,Window Unit(s) ,False,,True,False,condo-indicator,False,376.47058823529414,,False,False,True,False
94,0,4762597,"Detached, Bungalow ",Detached,Detached,1300.0,4,0,4,0,0,0.0,495000.0,2025-03-20,1949 BATH Road ,Kingston ,Ontario,K7M 4Y3,44.2373,-76.5877,20000.0,,"Full, Partially Finished ",,Bungalow ,Forced Air ,None,False,,True,False,detached-indicator,False,380.7692307692308,,False,True,False,True
95,0,4762597,"Detached, Backsplit 4 ",Detached,Detached,1300.0,4,0,4,0,0,0.0,824000.0,2025-03-21,423 Carrie Crescent ,Kingston ,Ontario,K7M 5X7,44.233,-76.5821,7800.0,,"Finished with Walk-Out, Separate Entrance ",,Backsplit 4 ,Forced Air ,Central Air ,False,,True,False,detached-indicator,False,633.8461538461538,,False,True,True,True
96,0,4762597,"Condo Townhouse, 2-Storey ",Condo Townhouse,Condominium,1100.0,3,0,3,0,0,0.0,400000.0,2025-03-21,1034 Craig Lane ,Kingston ,Ontario,K7M 7R8,44.249,-76.5911,1888.8,,Finished ,,2-Storey ,Forced Air ,None,False,,True,False,condo-indicator,False,363.6363636363636,,False,True,False,False
97,0,4762597,"Detached, Bungalow-Raised ",Detached,Detached,900.0,4,0,4,0,0,0.0,515000.0,2025-03-23,782 Cedarwood Drive ,Kingston ,Ontario,K7P 1M7,44.262,-76.5795,3850.0,,"Partially Finished, Walk-Up ",,Bungalow-Raised ,Forced Air ,Central Air ,False,,True,False,detached-indicator,False,572.2222222222222,,False,True,True,True
98,0,4762597,"Detached, Sidesplit 3 ",Detached,Detached,1390.5,3,0,3,0,0,0.0,649900.0,2025-03-24,1070 Dillingham Street ,Kingston ,Ontario,K7P 2P4,44.2575,-76.608,4290.0,,"Crawl Space, Finished ",,Sidesplit 3 ,Forced Air ,Central Air ,False,,True,False,detached-indicator,False,467.38583243437614,,False,True,True,True
99,0,4762597,"Detached, 2-Storey ",Detached,Detached,1900.0,5,0,5,0,0,0.0,760000.0,2025-03-25,913 Lancaster Drive ,Kingston ,Ontario,K7P 1R8,44.2562,-76.5913,5900.0,,"Finished, Full ",,2-Storey ,Forced Air ,Central Air ,False,,True,False,detached-indicator,False,400.0,,False,True,True,True
100,0,4762597,"Detached, Bungalow ",Detached,Detached,1300.0,3,0,3,0,0,0.0,561767.0,2025-03-25,767 Downing Street ,Kingston ,Ontario,K7M 5N1,44.2484,-76.5978,9075.0,,Finished ,,Bungalow ,Forced Air ,Central Air ,False,,True,False,detached-indicator,False,432.1284615384615,,False,True,True,True
102,0,4762597,"Detached, 2-Storey ",Detached,Detached,1750.0,4,0,4,0,0,0.0,720000.0,2025-03-27,481 Citation Crescent ,Kingston ,Ontario,K7M 8W2,44.2332,-76.5976,4983.5,,Finished ,,2-Storey ,Forced Air ,Central Air ,False,,True,False,detached-indicator,False,411.42857142857144,,False,True,True,False
104,0,4762597,"Detached, Bungalow ",Detached,Detached,1500.0,5,0,5,0,0,0.0,775000.0,2025-03-29,1373 Fisher Crescent ,Kingston ,Ontario,K7M 8T2,44.2343,-76.5961,4305.0,,"Finished with Walk-Out, Walk-Out ",,Bungalow ,Forced Air ,Central Air ,False,,True,False,detached-indicator,False,516.6666666666666,,False,True,True,True
107,0,4762597,"Detached, Backsplit 4 ",Detached,Detached,1300.0,4,0,4,0,0,0.0,580000.0,2025-04-02,825 Purcell Crescent ,Kingston ,Ontario,K7P 1B8,44.252,-76.5797,4983.5,,Apartment ,,Backsplit 4 ,Forced Air ,Central Air ,False,,True,False,detached-indicator,False,446.15384615384613,,False,True,True,False
108,0,4762597,"Detached, 2-Storey ",Detached,Detached,1750.0,4,0,4,0,0,0.0,760000.0,2025-04-04,1239 Katharine Crescent ,Kingston ,Ontario,K7P 2T8,44.2591,-76.5996,4983.5,,Finished with Walk-Out ,,2-Storey ,Forced Air ,Central Air ,False,,True,False,detached-indicator,False,434.2857142857143,,False,True,True,False
111,0,4762597,"Detached, 2-Storey ",Detached,Detached,1300.0,3,0,3,0,0,0.0,510000.0,2025-04-11,888 Clearfield Crescent ,Kingston ,Ontario,K7P 1Z5,44.2555,-76.5776,4983.5,,"Full, Finished ",,2-Storey ,Forced Air ,Central Air ,False,,True,False,detached-indicator,False,392.3076923076923,,False,True,True,False
112,0,4762597,"Detached, 2-Storey ",Detached,Detached,2750.0,4,0,4,0,0,0.0,710000.0,2025-04-14,969 Mona Drive ,Kingston ,Ontario,K7P 2J5,44.2539,-76.6067,4983.5,,"Full, Unfinished ",,2-Storey ,Forced Air ,Central Air ,False,,True,False,detached-indicator,False,258.1818181818182,,False,True,True,False
113,0,4762597,"Detached, Sidesplit ",Detached,Detached,1300.0,4,0,4,0,0,0.0,630000.0,2025-04-14,862 Kilburn Street ,Kingston ,Ontario,K7M 6A9,44.2433,-76.582,4983.5,,Partial Basement ,,Sidesplit ,Forced Air ,Central Air ,False,,True,False,detached-indicator,False,484.61538461538464,,False,True,True,False
114,0,4762597,"Detached, 2-Storey ",Detached,Detached,2250.0,5,0,5,0,0,0.0,888500.0,2025-04-15,1220 Humberside Drive ,Kingston ,Ontario,K7P 2P3,44.2551,-76.6069,4983.5,,Full ,,2-Storey ,Forced Air ,Central Air ,False,,True,False,detached-indicator,False,394.8888888888889,,False,True,True,False
115,0,4762597,"Detached, Bungalow-Raised ",Detached,Detached,1300.0,4,0,4,0,0,0.0,630000.0,2025-04-15,700 LAIDLAW Crescent ,Kingston ,Ontario,K7M 5M4,44.2474,-76.5894,4983.5,,"Separate Entrance, Finished ",,Bungalow-Raised ,Forced Air ,Central Air ,False,,True,False,detached-indicator,False,484.61538461538464,,False,True,True,False
116,0,4762597,"Detached, Bungalow-Raised ",Detached,Detached,900.0,3,0,3,0,0,0.0,590000.0,2025-04-16,1246 Carmil Boulevard ,Kingston ,Ontario,K7M 5Z3,44.2499,-76.6093,4983.5,,Full ,,Bungalow-Raised ,Forced Air ,Central Air ,False,,True,False,detached-indicator,False,655.5555555555555,,False,True,True,False
118,0,4762597,"Semi-Detached, 2-Storey ",Semi-Detached,Semi-Detached,1300.0,3,0,3,0,0,0.0,507900.0,2025-04-17,486 Evangeline Avenue ,Kingston ,Ontario,K7M 8T1,44.2331,-76.5939,3035.0,,Finished ,,2-Storey ,Forced Air ,Central Air ,False,,True,False,semi-detached-indicator,False,390.6923076923077,,False,True,True,False
120,0,4762597,"Detached, 2-Storey ",Detached,Detached,1750.0,6,0,6,0,0,0.0,850000.0,2025-04-21,941 AMBLESIDE Crescent ,Kingston ,Ontario,K7P 2B5,44.2556,-76.5823,4983.5,,"Apartment, Walk-Out ",,2-Storey ,Forced Air ,Central Air ,False,,True,False,detached-indicator,False,485.7142857142857,,False,True,True,False
122,0,4762597,"Semi-Detached, Bungalow ",Semi-Detached,Semi-Detached,1750.0,2,0,2,0,0,0.0,630000.0,2025-04-22,693 Millwood Drive ,Kingston ,Ontario,K7M 8Z1,44.2359,-76.5882,3035.0,,"Full, Unfinished ",,Bungalow ,Forced Air ,Central Air ,False,,True,False,semi-detached-indicator,False,360.0,,False,True,True,False
123,0,4762597,"Detached, Sidesplit 4 ",Detached,Detached,2250.0,4,0,4,0,0,0.0,677500.0,2025-04-23,852 Development Drive ,Kingston ,Ontario,K7M 4W6,44.2409,-76.5808,4983.5,,"Finished, Walk-Up ",,Sidesplit 4 ,Forced Air ,Central Air ,False,,True,False,detached-indicator,False,301.1111111111111,,False,True,True,False
124,0,4762597,"Detached, 2-Storey ",Detached,Detached,2250.0,4,0,4,0,0,0.0,895000.0,2025-04-24,1173 Bentley Terrace ,Kingston ,Ontario,K7P 2M1,44.2562,-76.6007,4983.5,,"Finished with Walk-Out, Full ",,2-Storey ,Forced Air ,Central Air ,False,,True,False,detached-indicator,False,397.77777777777777,,False,True,True,False
126,0,4762597,"Detached, Bungalow-Raised ",Detached,Detached,1349.5,3,0,3,0,0,0.0,560000.0,2025-04-24,824 Slocan Place ,Kingston ,Ontario,K7P 1B4,44.2508,-76.5818,4983.5,,"Full, Partially Finished ",,Bungalow-Raised ,Forced Air ,Central Air ,False,,True,False,detached-indicator,False,414.9685068543905,,False,True,True,False
127,0,4762597,"Detached, Bungalow ",Detached,Detached,1300.0,4,0,4,0,0,0.0,620000.0,2025-04-25,691 HIGH GATE PARK Drive ,Kingston ,Ontario,K7M 5Z7,44.245,-76.6036,4983.5,,Full ,,Bungalow ,Forced Air ,Central Air ,False,,True,False,detached-indicator,False,476.9230769230769,,False,True,True,False
128,0,4762597,"Detached, Bungalow-Raised ",Detached,Detached,1750.0,3,0,3,0,0,0.0,625000.0,2025-04-27,994 Hudson Drive ,Kingston ,Ontario,K7M 6E1,44.2453,-76.5899,4983.5,,"Finished with Walk-Out, Partial Basement ",,Bungalow-Raised ,Forced Air ,Central Air ,False,,True,False,detached-indicator,False,357.14285714285717,,False,True,True,False
129,0,4762597,"Detached, 2-Storey ",Detached,Detached,1300.0,3,0,3,0,0,0.0,525000.0,2025-04-28,725 Cedarwood Drive ,Kingston ,Ontario,K7P 1V4,44.2638,-76.5771,4983.5,,"Full, Finished ",,2-Storey ,Forced Air ,Central Air ,False,,True,False,detached-indicator,False,403.84615384615387,,False,True,True,False
130,0,4762597,"Detached, Bungalow ",Detached,Detached,1300.0,4,0,4,0,0,0.0,760000.0,2025-04-28,1121 Lincoln Drive ,Kingston ,Ontario,K7M 4Z7,44.2427,-76.5996,4983.5,,Finished with Walk-Out ,,Bungalow ,Water ,None,False,,True,False,detached-indicator,False,584.6153846153846,,False,True,False,False
132,0,4762597,"Detached, 2-Storey ",Detached,Detached,1300.0,4,0,4,0,0,0.0,565000.0,2025-04-30,1125 Basswood Place ,Kingston ,Ontario,K7P 1K4,44.2641,-76.5813,4983.5,,"Full, Partially Finished ",,2-Storey ,Forced Air ,Central Air ,False,,True,False,detached-indicator,False,434.61538461538464,,False,True,True,False
133,0,4762597,"Detached, 1 1/2 Storey ",Detached,Detached,1750.0,4,0,4,0,0,0.0,648000.0,2025-04-30,1149 Hudson Drive ,Kingston ,Ontario,K7M 5L5,44.2483,-76.6018,4983.5,,"Finished with Walk-Out, Separate Entrance ",,1 1/2 Storey ,Forced Air ,Central Air ,False,,True,False,detached-indicator,False,370.2857142857143,,False,True,True,False
134,0,4762597,"Detached, Bungalow ",Detached,Detached,900.0,4,0,4,0,0,0.0,575000.0,2025-05-01,479 Kirkwood Road ,Kingston ,Ontario,K7M 3X3,44.2347,-76.5735,4983.5,,"Finished, Full ",,Bungalow ,Forced Air ,Central Air ,False,,True,False,detached-indicator,False,638.8888888888889,,False,True,True,False
135,0,4762597,"Detached, 2-Storey ",Detached,Detached,1300.0,3,0,3,0,0,0.0,680000.0,2025-05-01,901 Lombardy Street ,Kingston ,Ontario,K7M 9C2,44.239,-76.5856,4983.5,,Finished ,,2-Storey ,Forced Air ,Central Air ,False,,True,False,detached-indicator,False,523.0769230769231,,False,True,True,False
136,0,4762597,"Condo Apartment, Apartment ",Condo Apartment,Condominium,1300.0,3,0,3,0,0,0.0,440000.0,2025-05-02,Unit 510 - 675 Davis Drive ,Kingston ,Ontario,K7M 8L5,44.2548,-76.5668,1888.8,,None,,Apartment ,Baseboard ,Wall Unit(s) ,False,,True,False,condo-indicator,False,338.46153846153845,,False,False,True,False
137,0,4762597,"Detached, Other ",Detached,Detached,1300.0,3,0,3,0,0,0.0,597000.0,2025-05-02,900 DANBURY Road ,Kingston ,Ontario,K7M 6E4,44.2485,-76.5859,4983.5,,"Finished, Full ",,Other ,Forced Air ,Central Air ,False,,True,False,detached-indicator,False,459.2307692307692,,False,True,True,False
138,0,4762597,"Duplex, Bungalow ",Duplex,Detached,1300.0,6,0,6,0,0,0.0,650000.0,2025-05-02,731 Downing Street ,Kingston ,Ontario,K7M 5N1,44.2466,-76.5974,4983.5,,"Unfinished, Full ",,Bungalow ,Forced Air ,Central Air ,False,,True,False,detached-style,False,500.0,,False,True,True,False
139,0,4762597,"Semi-Detached, 2-Storey ",Semi-Detached,Semi-Detached,1300.0,3,0,3,0,0,0.0,440000.0,2025-05-05,998 Sprucewood Crescent ,Kingston ,Ontario,K7P 1N1,44.2605,-76.5795,3035.0,,"Full, Finished ",,2-Storey ,Forced Air ,None,False,,True,False,semi-detached-indicator,False,338.46153846153845,,False,True,False,False
140,0,4762597,"Detached, 2-Storey ",Detached,Detached,1300.0,3,0,3,0,0,0.0,605000.0,2025-05-05,528 Beth Crescent ,Kingston ,Ontario,K7P 0K9,44.2637,-76.5917,4983.5,,"Unfinished, Full ",,2-Storey ,Forced Air ,Central Air ,False,,True,False,detached-indicator,False,465.38461538461536,,False,True,True,False
141,0,4762597,"Semi-Detached, 2-Storey ",Semi-Detached,Semi-Detached,900.0,3,0,3,0,0,0.0,490000.0,2025-05-06,1063 Basswood Place ,Kingston ,Ontario,K7P 1K4,44.2631,-76.5835,3035.0,,"Full, Finished ",,2-Storey ,Forced Air ,Central Air ,False,,True,False,semi-detached-indicator,False,544.4444444444445,,False,True,True,False
143,0,4762597,"Detached, 2-Storey ",Detached,Detached,2250.0,4,0,4,0,0,0.0,895000.0,2025-05-06,371 Tanglewood Drive ,Kingston ,Ontario,K7M 8T9,44.2323,-76.5872,4983.5,,"Full, Finished ",,2-Storey ,Forced Air ,Central Air ,False,,True,False,detached-indicator,False,397.77777777777777,,False,True,True,False
144,0,4762597,"Semi-Detached, 2-Storey ",Semi-Detached,Semi-Detached,1750.0,3,0,3,0,0,0.0,617207.0,2025-05-07,1203 Carfa Crescent ,Kingston ,Ontario,K7P 0N2,44.2643,-76.6002,3035.0,,Finished ,,2-Storey ,Forced Air ,Central Air ,False,,True,False,semi-detached-indicator,False,352.6897142857143,,False,True,True,False
146,0,4762597,"Semi-Detached, 2-Storey ",Semi-Detached,Semi-Detached,1300.0,3,0,3,0,0,0.0,517900.0,2025-05-08,1038 Springfield Drive ,Kingston ,Ontario,K7M 8V6,44.2308,-76.5915,3035.0,,"Full, Finished ",,2-Storey ,Forced Air ,Central Air ,False,,True,False,semi-detached-indicator,False,398.38461538461536,,False,True,True,False
147,0,4762597,"Detached, 2-Storey ",Detached,Detached,2250.0,4,0,4,0,0,0.0,679000.0,2025-05-08,958 Chancery Street ,Kingston ,Ontario,K7P 1R3,44.2551,-76.5904,4983.5,,"Finished, Full ",,2-Storey ,Forced Air ,Central Air ,False,,True,False,detached-indicator,False,301.77777777777777,,False,True,True,False
148,0,4762597,"Detached, 2-Storey ",Detached,Detached,1750.0,4,0,4,0,0,0.0,750000.0,2025-05-09,1110 Dunham Street ,Kingston ,Ontario,K7P 2L4,44.2545,-76.5997,4983.5,,Finished ,,2-Storey ,Forced Air ,Central Air ,False,,True,False,detached-indicator,False,428.57142857142856,,False,True,True,False
149,0,4762597,"Detached, Bungalow ",Detached,Detached,1300.0,2,0,2,0,0,0.0,530000.0,2025-05-11,685 Roosevelt Drive ,Kingston ,Ontario,K7M 8T8,44.231,-76.5882,4983.5,,Full ,,Bungalow ,Forced Air ,Central Air ,False,,True,False,detached-indicator,False,407.6923076923077,,False,True,True,False
150,1,4762739,Single Family,Detached,Detached,1136.0,2,0,2,2,0,2.0,710000.0,2024-10-30,638 Myers Point Road,Nova Scotia,Nova Scotia,B0J 1P0,44.7765,-63.0424,65340.0,2010.0,"Full, Fully Developed, Walkout",,Bungalow,"Baseboard, Heat Pump, Fireplace, ETS (Elec Thermal Storage)","Baseboard, Heat Pump, Fireplace, ETS (Elec Thermal Storage)",False,,False,False,detached-indicator,False,625.0,15.0,True,True,True,True
151,1,4762739,Single Family,Detached,Detached,1026.0,3,0,3,1,1,1.5,450000.0,2024-11-01,281 West Jeddore Road,Nova Scotia,Nova Scotia,B0J 1P0,44.7683,-63.0714,43560.0,,"Undeveloped, Full, Walkout",,"Bungalow, 1 Level","Stove, Heat Pump, Ductless Cooling","Stove, Heat Pump, Ductless Cooling",False,,False,False,detached-indicator,False,438.5964912280702,,False,True,True,True
152,1,4762739,Single Family,Detached,Detached,2117.0,3,0,3,1,1,1.5,930000.0,2024-11-01,46 Ostrea Lake Road,Nova Scotia,Nova Scotia,B0J 2L0,44.7809,-63.1032,99929.0,1967.0,Partially Developed,,"Bungalow, 2 Level","Baseboard, Heat Pump, Fireplace","Baseboard, Heat Pump, Fireplace",False,,False,False,detached-indicator,False,439.30089749645725,58.0,True,True,True,True
153,1,4762739,Single Family,Detached,Detached,816.0,2,0,2,1,1,1.5,430000.0,2024-11-08,15 Macdonald Lane,Nova Scotia,Nova Scotia,B0J 2L0,44.7889,-63.1428,89298.0,2021.0,None,,Bungalow,Baseboard,Baseboard,False,,False,False,detached-indicator,False,526.9607843137255,4.0,True,False,True,True
154,1,4762739,Single Family,Detached,Detached,1350.0,3,0,3,1,0,1.0,395000.0,2024-11-28,8426 Highway 7,Nova Scotia,Nova Scotia,B0J 2L0,44.7903,-63.1199,30719.0,1918.0,"Undeveloped, Full, Walkout",,2 Level,Forced Air,Forced Air,False,,False,False,detached-indicator,False,292.5925925925926,107.0,True,True,True,True
155,1,4762739,Single Family,Detached,Detached,1320.0,3,0,3,2,0,2.0,378275.0,2024-12-06,569 West Jeddore Road,Nova Scotia,Nova Scotia,B0J 1P0,44.7584,-63.0603,92347.0,2013.0,"Undeveloped, Walkout",,Bungalow,"Baseboard, Heat Pump","Baseboard, Heat Pump",False,,False,False,detached-indicator,False,286.5719696969697,12.0,True,True,True,True
156,1,4762739,Single Family,Detached,Detached,1092.0,3,0,3,2,0,2.0,415000.0,2024-12-09,9051 Highway 7,Nova Scotia,Nova Scotia,B0J 1P0,44.7788,-63.0876,29832.0,1995.0,"Full, Partially Developed, Walkout",,Split Entry,"Baseboard, Furnace, Forced Air","Baseboard, Furnace, Forced Air",False,,False,False,detached-indicator,False,380.03663003663,30.0,True,True,True,True
157,1,4762739,Single Family,Detached,Detached,1100.0,3,0,3,2,0,2.0,420000.0,2024-12-13,6547 Highway 7,Nova Scotia,Nova Scotia,B0H 1N0,44.7648,-63.2169,21446.0,1945.0,Crawl Space,,2 Level,"Furnace, Forced Air","Furnace, Forced Air",False,,False,False,detached-indicator,False,381.8181818181818,80.0,True,True,True,True
158,1,4762739,Single Family,Detached,Detached,1078.0,2,0,2,1,0,1.0,325000.0,2024-12-27,8179 7 Highway,Nova Scotia,Nova Scotia,B0J 2L0,44.7922,-63.1337,32400.0,,None,,1.5 Level,"Baseboard, Heat Pump","Baseboard, Heat Pump",False,,False,False,detached-indicator,False,301.4842300556586,,False,False,True,True
159,1,4762739,Detached,Detached,Detached,616.0,2,0,2,1,0,1.0,135000.0,2025-01-10,"205 East Petpeswick Road, Musquodoboit Harbour",Nova Scotia,Nova Scotia,B0J 2L0,44.7784,-63.1482,34000.0,1934.0,None,,Detached,Furnace,Furnace,False,,False,False,detached-indicator,False,219.15584415584416,91.0,True,False,True,True
160,1,4762739,Single Family,Detached,Detached,1182.0,3,0,3,2,0,2.0,500000.0,2025-02-06,2 Willowdale Drive,Nova Scotia,Nova Scotia,B0J 2L0,44.7832,-63.1657,32393.0,1998.0,"Crawl Space, Fully Developed",,"Side Split, 3 Level","Forced Air, Fireplace, In Floor","Forced Air, Fireplace, In Floor",False,,False,False,detached-indicator,False,423.01184433164127,27.0,True,True,True,True
161,1,4762739,Single Family,Detached,Detached,900.0,3,0,3,2,0,2.0,500000.0,2025-03-21,6820 Highway 7,Nova Scotia,Nova Scotia,B0H 1N0,44.7747,-63.2075,17238.0,1980.0,"Full, Fully Developed, Walkout",,Bungalow,"Stove, Heat Pump","Stove, Heat Pump",False,,False,False,detached-indicator,False,555.5555555555555,45.0,True,True,True,True
162,1,4762739,Single Family,Detached,Detached,320.0,1,0,1,1,0,1.0,108000.0,2025-04-02,425 Highway 357,Nova Scotia,Nova Scotia,B0J 1N0,44.8016,-63.1651,74381.0,1875.0,None,,1.5 Level,Forced Air,Forced Air,False,,False,False,detached-indicator,False,337.5,150.0,True,False,True,True
163,1,4762739,Single Family,Detached,Detached,1130.0,2,0,2,1,2,2.0,285000.0,2025-04-04,9559 Highway 7,Nova Scotia,Nova Scotia,B0J 1P0,44.7778,-63.0583,35810.0,1950.0,"Partially Developed, Walkout",,1.5 Level,"Baseboard, Forced Air","Baseboard, Forced Air",False,,False,False,detached-indicator,False,252.21238938053096,75.0,True,True,True,True
164,1,4762739,Single Family,Detached,Detached,1185.0,2,0,2,2,0,2.0,420000.0,2025-04-08,Lot 1 Highway 357,Nova Scotia,Nova Scotia,B0J 2L0,44.7873,-63.1481,43560.0,,None,,Bungalow,"Baseboard, Heat Pump","Baseboard, Heat Pump",False,,False,False,detached-indicator,False,354.43037974683546,,False,False,True,True
165,1,4762739,Single Family,Detached,Detached,440.0,2,0,2,1,0,1.0,263500.0,2025-04-14,8210 Highway 7,Nova Scotia,Nova Scotia,B0J 2L0,44.7919,-63.1318,43560.0,,"Undeveloped, Crawl Space",,1.5 Level,Unknown,None,False,,False,False,detached-indicator,False,598.8636363636364,,False,True,False,True
166,1,4762739,Single Family,Detached,Detached,3675.0,5,0,5,4,0,4.0,999999.0,2025-04-24,215 Scotsdale Drive,Nova Scotia,Nova Scotia,B0J 1N0,44.787,-63.1852,110868.0,2004.0,"Full, Fully Developed",,2 Level,Baseboard,Baseboard,False,,False,False,detached-indicator,False,272.10857142857145,21.0,True,True,True,True
167,1,4762739,Single Family,Detached,Detached,1472.0,3,0,3,2,0,2.0,545000.0,2025-05-02,Unit 7  East Petpeswick Road,Nova Scotia,Nova Scotia,B0J 2L0,44.7865,-63.1475,126952.0,,None,,Bungalow,"Baseboard, Heat Pump","Baseboard, Heat Pump",False,,False,False,detached-indicator,False,370.2445652173913,,False,False,True,True
168,1,4762739,Duplex,Over-Under,Detached,1152.0,4,0,4,2,0,2.0,740000.0,2025-05-13,8683 Highway 7,Nova Scotia,Nova Scotia,B0J 2L0,44.7882,-63.1068,52272.0,1991.0,"Full, Fully Developed, Walkout",,Bungalow,Baseboard,Baseboard,False,,False,True,gla-fallback,False,642.3611111111111,34.0,True,True,True,True
169,2,4763065,"Row/Townhouse, Two Story ",Row/Townhouse,Townhouse,1444.0,3,0,3,2,1,2.5,717000.0,2024-12-02,246 Waterbrook Lane ,Kitchener ,Ontario,N2P 2X5,43.3736,-80.4322,1848.0,,Unfinished ,,Two Story ,"Forced Air,  Natural Gas ",Central Air ,False,,False,False,townhouse-indicator,False,496.53739612188366,,False,True,True,True
170,2,4763065,"Row/Townhouse, Two Story ",Row/Townhouse,Townhouse,1100.0,3,0,3,1,1,1.5,695000.0,2024-12-02,115 Templewood Drive ,Kitchener ,Ontario,N2R 1Y4,43.3919,-80.4622,3348.0,,Finished ,,Two Story ,"Forced Air,  Natural Gas ",Central Air ,False,,False,False,townhouse-indicator,False,631.8181818181819,,False,True,True,True
171,2,4763065,"Single Family Residence, Two Story ",Single Family Residence,Detached,2377.0,4,0,4,3,1,3.5,952200.0,2024-12-02,237 Shady Glen Crescent ,Kitchener ,Ontario,N2R 0J9,43.3871,-80.4994,3900.0,2017.0,"Finished, Walk-Up Access ",,Two Story ,Forced Air ,None,False,,False,False,detached-indicator,False,400.58897770298694,8.0,True,True,False,True
172,2,4763065,"Detached, 2-Storey ",Detached,Detached,1750.0,3,0,3,0,0,0.0,943000.0,2024-12-02,540 Doonwoods Crescent ,Kitchener ,Ontario,N2P 2N1,43.371,-80.435,3600.0,,Unfinished ,,2-Storey ,Forced Air ,Central Air ,False,,True,False,detached-indicator,False,538.8571428571429,,False,True,True,True
173,2,4763065,"Single Family Residence, Two Story ",Single Family Residence,Detached,2093.0,5,0,5,3,1,3.5,1003000.0,2024-12-03,619 Rush Meadow Crescent ,Kitchener ,Ontario,N2R 1S9,43.3887,-80.4627,4983.5,,Finished ,,Two Story ,"Forced Air,  Natural Gas ",Central Air ,False,,False,False,detached-indicator,False,479.2164357381749,,False,True,True,False
174,2,4763065,"Single Family Residence, Two Story ",Single Family Residence,Detached,2801.0,4,0,4,3,1,3.5,1150100.0,2024-12-03,299 Moorlands Crescent ,Kitchener ,Ontario,N2P 2N3,43.3745,-80.444,4000.0,2015.0,Finished ,,Two Story ,Natural Gas ,Central Air ,False,,False,False,detached-indicator,False,410.60335594430563,10.0,True,True,True,True
175,2,4763065,"Condo Townhouse, 3-Storey ",Condo Townhouse,Condominium,1500.0,2,0,2,0,0,0.0,553000.0,2024-12-04,229 West oak Tr ,Kitchener ,Ontario,N2R 0R9,43.3836,-80.4917,1888.8,,None ,,3-Storey ,Forced Air ,Central Air ,False,,True,False,condo-indicator,False,368.6666666666667,,False,True,True,False
176,2,4763065,"Freehold Townhouse, 2-Storey ",Freehold Townhouse,Townhouse,1750.0,3,0,3,0,0,0.0,750000.0,2024-12-04,98 Pony Way ,Kitchener ,Ontario,N2R 0R8,43.3842,-80.4751,2380.0,,Full ,,2-Storey ,Forced Air ,Central Air ,False,,True,False,townhouse-indicator,False,428.57142857142856,,False,True,True,True
177,2,4763065,"Single Family Residence, Two Story ",Single Family Residence,Detached,1440.0,3,0,3,2,1,2.5,797400.0,2024-12-04,Unit Lot 0004 - 15 Pine Warbler Street ,Kitchener ,Ontario,N2P,43.3668,-80.4445,3000.0,,"Unfinished, Walk-Out Access ",,Two Story ,"Forced Air,  Natural Gas ",None,False,,False,False,detached-indicator,False,553.75,,False,True,False,True
178,2,4763065,"Row/Townhouse, Two Story ",Row/Townhouse,Townhouse,1807.0,3,0,3,2,1,2.5,788000.0,2024-12-04,913 Robert Ferrie Drive ,Kitchener ,Ontario,N2R 1P2,43.3784,-80.45,1908.0,,"Unfinished, Unfinished ",,Two Story ,"Forced Air,  Natural Gas ",Central Air ,False,,False,False,townhouse-indicator,False,436.081903707803,,False,True,True,True
179,2,4763065,"Freehold Townhouse, 2-Storey ",Freehold Townhouse,Townhouse,1750.0,3,0,3,0,0,0.0,771000.0,2024-12-04,230 Greenwater Place ,Kitchener ,Ontario,N2R 0G9,43.3771,-80.4454,3248.0,,Finished ,,2-Storey ,Forced Air ,Central Air ,False,,True,False,townhouse-indicator,False,440.57142857142856,,False,True,True,True
180,2,4763065,"Row/Townhouse, Two Story ",Row/Townhouse,Townhouse,1479.0,3,0,3,2,0,2.0,715000.0,2024-12-05,34 Renfrew Street ,Kitchener ,Ontario,N2R 0G5,43.3839,-80.4715,1998.0,2014.0,Unfinished ,,Two Story ,"Forced Air,  Natural Gas ",Central Air ,False,,False,False,townhouse-indicator,False,483.43475321162947,11.0,True,True,True,True
181,2,4763065,"Single Family Residence, Two Story ",Single Family Residence,Detached,2103.0,5,0,5,2,1,2.5,935000.0,2024-12-05,27 Rush Meadow Street ,Kitchener ,Ontario,N2R 1S9,43.3897,-80.4629,9432.0,2004.0,Finished ,,Two Story ,"Forced Air,  Natural Gas ",Central Air ,False,,False,False,detached-indicator,False,444.602948169282,21.0,True,True,True,True
182,2,4763065,"Detached, 2-Storey ",Detached,Detached,2250.0,4,0,4,0,0,0.0,915000.0,2024-12-09,2 Castlebay Street ,Kitchener ,Ontario,N2R 0G5,43.3837,-80.4712,5400.0,,Unfinished ,,2-Storey ,Forced Air ,Central Air ,False,,True,False,detached-indicator,False,406.6666666666667,,False,True,True,True
183,2,4763065,"Row/Townhouse, Two Story ",Row/Townhouse,Townhouse,1352.0,3,0,3,2,1,2.5,655000.0,2024-12-10,122 Rochefort Street ,Kitchener ,Ontario,N2R 1V5,43.3844,-80.4788,2912.0,2012.0,Unfinished ,,Two Story ,"Forced Air,  Natural Gas ",Central Air ,False,,False,False,townhouse-indicator,False,484.4674556213018,13.0,True,True,True,True
184,2,4763065,"Single Family Residence, 3 Storey ",Single Family Residence,Detached,2170.0,3,0,3,3,1,3.5,930000.0,2024-12-10,23 Pondcliffe Drive ,Kitchener ,Ontario,N2R 0M1,43.3819,-80.4417,3120.0,,Unfinished ,,3 Storey ,"Forced Air,  Natural Gas ",Central Air ,False,,False,False,detached-indicator,False,428.57142857142856,,False,True,True,True
185,2,4763065,"Row/Townhouse, Stacked Townhouse ",Row/Townhouse,Townhouse,628.0,1,0,1,1,0,1.0,370000.0,2024-12-12,Unit 5D - 255 Maitland Street ,Kitchener ,Ontario,N2R 1Z2,43.3879,-80.4774,2014.0,2013.0,None,,Stacked Townhouse ,"Forced Air,  Natural Gas ",Central Air ,False,,False,False,townhouse-indicator,False,589.171974522293,12.0,True,False,True,False
186,2,4763065,"Single Family Residence, Backsplit ",Single Family Residence,Detached,2001.0,5,0,5,3,0,3.0,840000.0,2024-12-16,137 Winding Wood Crescent ,Kitchener ,Ontario,N2P 2L7,43.3825,-80.4249,5117.0,,Finished ,,Backsplit ,Natural Gas ,Central Air ,False,,False,False,detached-indicator,False,419.79010494752623,,False,True,True,True
187,2,4763065,"Row/Townhouse, Two Story ",Row/Townhouse,Townhouse,1831.0,3,0,3,2,1,2.5,775000.0,2024-12-17,120 Watermill Street ,Kitchener ,Ontario,N2P 0H3,43.373,-80.4302,2964.0,2018.0,"Unfinished, Walk-Out Access ",,Two Story ,"Forced Air,  Natural Gas ",Central Air ,False,,False,False,townhouse-indicator,False,423.2659748771163,7.0,True,True,True,True
188,2,4763065,"Row/Townhouse, Two Story ",Row/Townhouse,Townhouse,1606.0,3,0,3,3,1,3.5,788000.0,2024-12-18,24 Roywood Street ,Kitchener ,Ontario,N2R 0S5,43.3773,-80.4827,1995.0,2023.0,Finished ,,Two Story ,"Forced Air,  Natural Gas ",Central Air ,False,,False,False,townhouse-indicator,False,490.66002490660026,2.0,True,True,True,True
189,2,4763065,"Row/Townhouse, Two Story ",Row/Townhouse,Townhouse,1274.0,3,0,3,1,1,1.5,700000.0,2024-12-19,17 Stratus Street ,Kitchener ,Ontario,N2R 0K5,43.3819,-80.4959,1886.0,2016.0,Unfinished ,,Two Story ,"Forced Air,  Natural Gas ",Central Air ,False,,False,False,townhouse-indicator,False,549.4505494505495,9.0,True,True,True,True
190,2,4763065,"Row/Townhouse, Two Story ",Row/Townhouse,Townhouse,925.0,2,0,2,1,1,1.5,470000.0,2024-12-20,Unit E - 236 Rachel Crescent ,Kitchener ,Ontario,N2R 0E1,43.3838,-80.4879,2014.0,2013.0,Unfinished ,,Two Story ,"Forced Air,  Natural Gas ",Central Air ,False,,False,False,townhouse-indicator,False,508.1081081081081,12.0,True,True,True,False
191,2,4763065,"Row/Townhouse, 3 Storey ",Row/Townhouse,Townhouse,1355.0,2,0,2,2,1,2.5,600000.0,2024-12-20,Unit 41 - 111 South Creek Drive ,Kitchener ,Ontario,N2P 2N3,43.3746,-80.441,2014.0,,"Unfinished, Walk-Up Access ",,3 Storey ,"Forced Air,  Natural Gas ",Central Air ,False,,False,False,townhouse-indicator,False,442.8044280442804,,False,True,True,False
192,2,4763065,"Row/Townhouse, Two Story ",Row/Townhouse,Townhouse,1278.0,3,0,3,2,1,2.5,670500.0,2024-12-20,169 South Creek Drive ,Kitchener ,Ontario,N2P 2N3,43.373,-80.4405,2014.0,2018.0,Finished ,,Two Story ,"Forced Air,  Natural Gas ",Central Air ,False,,False,False,townhouse-indicator,False,524.6478873239437,7.0,True,True,True,False
194,2,4763065,"Single Family Residence, Two Story ",Single Family Residence,Detached,2450.0,5,0,5,3,1,3.5,1085000.0,2024-12-20,905 Woodbine Court ,Kitchener ,Ontario,N2R 1X4,43.3867,-80.4841,5550.0,2006.0,"Finished, Walk-Up Access ",,Two Story ,"Fireplace-Gas,  Forced Air,  Natural Gas ",Central Air ,False,,False,False,detached-indicator,False,442.85714285714283,19.0,True,True,True,True
195,2,4763065,"Single Family Residence, Two Story ",Single Family Residence,Detached,3247.0,6,0,6,4,1,4.5,1180000.0,2024-12-20,182 Doon Mills Drive ,Kitchener ,Ontario,N2P 2S1,43.387,-80.4325,6486.0,2003.0,"Finished, Full ",,Two Story ,"Forced Air,  Natural Gas ",Central Air ,False,,False,False,detached-indicator,False,363.4123806590699,22.0,True,True,True,True
196,2,4763065,"Row/Townhouse, 3 Storey ",Row/Townhouse,Townhouse,1840.0,3,0,3,2,1,2.5,800000.0,2024-12-22,140 Ian Ormston Drive ,Kitchener ,Ontario,N2P 2N7,43.3774,-80.4197,2496.0,2021.0,"Finished, Walk-Out Access ",,3 Storey ,"Forced Air,  Natural Gas ",Central Air ,False,,False,False,townhouse-indicator,False,434.7826086956522,4.0,True,True,True,True
197,2,4763065,"Row/Townhouse, 3 Storey ",Row/Townhouse,Townhouse,1684.0,4,0,4,2,1,2.5,750000.0,2024-12-22,37 Sportsman Hill Street ,Kitchener ,Ontario,N2P 0J4,43.3767,-80.4186,2052.0,,None ,,3 Storey ,"Forced Air,  Natural Gas ",Central Air ,False,,False,False,townhouse-indicator,False,445.3681710213777,,False,True,True,True
198,2,4763065,"Detached, 2-Storey ",Detached,Detached,2750.0,4,0,4,0,0,0.0,1130000.0,2024-12-24,3219 Roseville Road ,North Dumfries ,Ontario,N0B 1E0,43.3411,-80.4768,10780.0,,"Finished, Full ",,2-Storey ,Forced Air ,Central Air ,False,,True,False,detached-indicator,False,410.90909090909093,,False,True,True,True
200,2,4763065,"Single Family Residence, Two Story ",Single Family Residence,Detached,2000.0,3,0,3,3,1,3.5,935000.0,2024-12-29,217 Sedgewood Street ,Kitchener ,Ontario,N2P 2N3,43.3719,-80.4421,3000.0,2020.0,Finished ,,Two Story ,"Forced Air,  Natural Gas ",Central Air ,False,,False,False,detached-indicator,False,467.5,5.0,True,True,True,True
201,2,4763065,"Single Family Residence, Two Story ",Single Family Residence,Detached,1491.0,5,0,5,2,2,3.0,860000.0,2024-12-29,65 Banffshire Street ,Kitchener ,Ontario,N2R 1W2,43.3867,-80.4719,4350.0,,Finished ,,Two Story ,"Forced Air,  Natural Gas ",Central Air ,False,,False,False,detached-indicator,False,576.7940979208585,,False,True,True,True
202,2,4763065,"Row/Townhouse, Two Story ",Row/Townhouse,Townhouse,2225.0,3,0,3,3,1,3.5,895000.0,2024-12-31,2 Stonehill Avenue E ,Kitchener ,Ontario,N2R 0N8,43.3818,-80.483,2014.0,,Finished ,,Two Story ,"Forced Air,  Natural Gas ",Central Air ,False,,False,False,townhouse-indicator,False,402.24719101123594,,False,True,True,False
203,2,4763065,"Row/Townhouse, Stacked Townhouse ",Row/Townhouse,Townhouse,1225.0,2,0,2,2,1,2.5,535000.0,2025-01-03,152 Wheat Lane ,Kitchener ,Ontario,N2R 0R4,43.38,-80.4812,2014.0,2022.0,None ,,Stacked Townhouse ,Forced Air ,Central Air ,False,,False,False,townhouse-indicator,False,436.734693877551,3.0,True,True,True,False
204,2,4763065,"Single Family Residence, Two Story ",Single Family Residence,Detached,2188.0,4,0,4,3,1,3.5,900000.0,2025-01-03,956 Bianca Court ,Kitchener ,Ontario,N2R 1Y8,43.3911,-80.4804,2900.0,,Finished ,,Two Story ,Forced Air ,Central Air ,False,,False,False,detached-indicator,False,411.3345521023766,,False,True,True,True
205,2,4763065,"Single Family Residence, Two Story ",Single Family Residence,Detached,2122.0,3,0,3,2,1,2.5,975000.0,2025-01-03,258 Sedgewood Street ,Kitchener ,Ontario,N2P 2N3,43.3721,-80.4435,3500.0,,Unfinished ,,Two Story ,"Electric Forced Air,  Natural Gas ",Central Air ,False,,False,False,detached-indicator,False,459.4721960414703,,False,True,True,True
206,2,4763065,"Single Family Residence, Two Story ",Single Family Residence,Detached,1570.0,4,0,4,2,0,2.0,910000.0,2025-01-03,82 Cedar Crescent ,Wilmot ,Ontario,N0B 2E0,43.3487,-80.5324,4983.5,,Partially Finished ,,Two Story ,Forced Air ,Central Air ,False,,False,False,detached-indicator,False,579.6178343949044,,False,True,True,False
207,2,4763065,"Single Family Residence, Two Story ",Single Family Residence,Detached,2575.0,6,0,6,3,1,3.5,1150000.0,2025-01-06,11 Netherwood Road ,Kitchener ,Ontario,N2P 2X5,43.3742,-80.4364,4028.0,2016.0,"Finished, Separate Entrance ",,Two Story ,"Forced Air,  Natural Gas ",Central Air ,False,,False,False,detached-indicator,False,446.6019417475728,9.0,True,True,True,True
208,2,4763065,"Row/Townhouse, Two Story ",Row/Townhouse,Townhouse,2095.0,4,0,4,4,1,4.5,860000.0,2025-01-08,85 Grassbourne Avenue ,Kitchener ,Ontario,N0B 2E0,43.3774,-80.4832,2600.0,2023.0,"Finished, Walk-Out Access ",,Two Story ,Forced Air ,Central Air ,False,,False,False,townhouse-indicator,False,410.50119331742246,2.0,True,True,True,True
209,2,4763065,"Row/Townhouse, Two Story ",Row/Townhouse,Townhouse,1709.0,3,0,3,3,1,3.5,790000.0,2025-01-14,8 Pony Way ,Kitchener ,Ontario,N2R 1R2,43.3853,-80.4755,2450.0,2021.0,Finished ,,Two Story ,Forced Air ,Central Air ,False,,False,False,townhouse-indicator,False,462.2586307782329,4.0,True,True,True,True
212,2,4763065,"Row/Townhouse, Stacked Townhouse ",Row/Townhouse,Townhouse,977.0,3,0,3,2,0,2.0,515000.0,2025-01-16,Unit 71 - 261 Woodbine Avenue ,Kitchener ,Ontario,N2R 0P7,43.3921,-80.4858,2014.0,,None,,Stacked Townhouse ,Natural Gas ,Central Air ,False,,False,False,townhouse-indicator,False,527.1238485158649,,False,False,True,False
213,2,4763065,"Detached, Single Family Residence, Bungalow ","Detached, Single Family Residence",Detached,895.0,2,0,2,1,0,1.0,580000.0,2025-01-16,60 Cedar Crescent ,Wilmot ,Ontario,N0B 2E0,43.3486,-80.5328,16104.0,1934.0,Unfinished ,,Bungalow ,"Forced Air,  Natural Gas ",None,False,,False,False,detached-indicator,False,648.0446927374302,91.0,True,True,False,True
214,2,4763065,"Single Family Residence, Two Story ",Single Family Residence,Detached,2509.0,4,0,4,3,1,3.5,1175000.0,2025-01-16,842 Robert Ferrie Drive ,Kitchener ,Ontario,N2R 0B9,43.3785,-80.4469,4983.5,2021.0,Finished ,,Two Story ,"Forced Air,  Natural Gas ",Central Air ,False,,False,False,detached-indicator,False,468.3140693503388,4.0,True,True,True,False
215,2,4763065,"Single Family Residence, Two Story ",Single Family Residence,Detached,1600.0,3,0,3,2,1,2.5,838000.0,2025-01-17,29 Blue Oak Street ,Kitchener ,Ontario,N2R 0K3,43.383,-80.4971,2640.0,2016.0,Unfinished ,,Two Story ,Natural Gas ,Central Air ,False,,False,False,detached-indicator,False,523.75,9.0,True,True,True,True
216,2,4763065,"Row/Townhouse, Bungalow ",Row/Townhouse,Townhouse,782.0,1,0,1,1,0,1.0,455900.0,2025-01-17,Unit F022 - 15 Stauffer Woods Trail ,Kitchener ,Ontario,N2P 2P3,43.3671,-80.443,2014.0,,None,,Bungalow ,"Forced Air,  Natural Gas ",Central Air ,False,,False,False,townhouse-indicator,False,582.9923273657289,,False,False,True,False
217,2,4763065,"Row/Townhouse, Stacked Townhouse ",Row/Townhouse,Townhouse,1121.0,2,0,2,1,1,1.5,499900.0,2025-01-17,Unit C - 25 Sienna Street ,Kitchener ,Ontario,N2R 1P7,43.3844,-80.4883,2014.0,2015.0,None ,,Stacked Townhouse ,Forced Air ,Central Air ,False,,False,False,townhouse-indicator,False,445.94112399643177,10.0,True,True,True,False
218,2,4763065,"Single Family Residence, Bungalow ",Single Family Residence,Detached,1715.0,3,0,3,2,1,2.5,865000.0,2025-01-17,59 Nith River Way ,North Dumfries ,Ontario,N0B 1E0,43.2919,-80.4659,4983.5,1992.0,"Unfinished, Unfinished ",,Bungalow ,"Forced Air,  Natural Gas ",Central Air ,False,,False,False,detached-indicator,False,504.3731778425656,33.0,True,True,True,False
219,2,4763065,"Single Family Residence, Two Story ",Single Family Residence,Detached,2496.0,5,0,5,2,1,2.5,1300000.0,2025-01-17,967 Doon Village Road ,Kitchener ,Ontario,N2P 1A1,43.3895,-80.4369,15456.0,2009.0,"Finished, Walk-Out Access ",,Two Story ,"Forced Air,  Natural Gas ",Central Air ,False,,False,False,detached-indicator,False,520.8333333333334,16.0,True,True,True,True
220,2,4763065,"Single Family Residence, Two Story ",Single Family Residence,Detached,2164.0,4,0,4,3,1,3.5,1080000.0,2025-01-19,425 Woodbine Avenue ,Kitchener ,Ontario,N2R 0A6,43.3922,-80.4806,4514.0,2015.0,"Finished, Walk-Out Access ",,Two Story ,"Forced Air,  Natural Gas ",Central Air ,False,,False,False,detached-indicator,False,499.0757855822551,10.0,True,True,True,True
221,2,4763065,"Single Family Residence, Two Story ",Single Family Residence,Detached,1621.0,3,0,3,2,1,2.5,850000.0,2025-01-20,27 Verona Street ,Kitchener ,Ontario,N2R 1T4,43.3842,-80.4849,3120.0,2006.0,Finished ,,Two Story ,"Forced Air,  Natural Gas ",Central Air ,False,,False,False,detached-indicator,False,524.3676742751388,19.0,True,True,True,True
224,2,4763065,"Semi Detached, Single Family Residence, Bungalow ","Semi Detached, Single Family Residence",Semi-Detached,1067.0,5,0,5,2,0,2.0,642000.0,2025-01-24,37 Harvest Court ,Kitchener ,Ontario,N2P 1T3,43.3919,-80.4422,4867.0,1983.0,"Partially Finished, Full ",,Bungalow ,"Forced Air,  Natural Gas ",Central Air ,False,,False,False,semi-detached-indicator,False,601.6869728209934,42.0,True,True,True,True
226,2,4763065,"Row/Townhouse, 3 Storey ",Row/Townhouse,Townhouse,1418.0,3,0,3,2,1,2.5,670000.0,2025-01-27,216 Sophia Crescent ,Kitchener ,Ontario,N2R 1X8,43.3863,-80.4883,1854.0,,Finished ,,3 Storey ,"Forced Air,  Natural Gas ",Central Air ,False,,False,False,townhouse-indicator,False,472.49647390691115,,False,True,True,True
227,2,4763065,"Row/Townhouse, Two Story ",Row/Townhouse,Townhouse,1518.0,3,0,3,2,1,2.5,730000.0,2025-01-27,12 Roper Place ,Kitchener ,Ontario,N2R 1R2,43.3854,-80.4759,1764.0,2023.0,"Unfinished, Unfinished ",,Two Story ,"Forced Air,  Natural Gas ",Central Air ,False,,False,False,townhouse-indicator,False,480.8959156785244,2.0,True,True,True,True
228,2,4763065,"Single Family Residence, Two Story ",Single Family Residence,Detached,1685.0,3,0,3,2,1,2.5,875000.0,2025-01-28,208 Woodbine Avenue ,Kitchener ,Ontario,N2R 1Y5,43.3894,-80.4857,3450.0,2021.0,Unfinished ,,Two Story ,"Forced Air,  Natural Gas ",Central Air ,False,,False,False,detached-indicator,False,519.2878338278932,4.0,True,True,True,True
230,2,4763065,"Row/Townhouse, Two Story ",Row/Townhouse,Townhouse,1543.0,3,0,3,2,1,2.5,690000.0,2025-01-30,30 Tudor Street ,Kitchener ,Ontario,N2R 1W3,43.3864,-80.4708,2156.0,,"Finished, Walk-Out Access ",,Two Story ,"Forced Air,  Natural Gas ",Central Air ,False,,False,False,townhouse-indicator,False,447.1808165910564,,False,True,True,True
231,2,4763065,"Row/Townhouse, 3 Storey ",Row/Townhouse,Townhouse,1405.0,3,0,3,2,1,2.5,700000.0,2025-01-31,284 Sophia Crescent ,Kitchener ,Ontario,N2R 1X9,43.3868,-80.4858,1944.0,2007.0,None ,,3 Storey ,"Forced Air,  Natural Gas ",Central Air ,False,,False,False,townhouse-indicator,False,498.220640569395,18.0,True,True,True,True
232,2,4763065,"Row/Townhouse, Stacked Townhouse ",Row/Townhouse,Townhouse,998.0,2,0,2,2,0,2.0,499900.0,2025-01-31,Unit 25 - 10 South Creek Drive ,Kitchener ,Ontario,N2P 2R3,43.3774,-80.4438,2014.0,,None ,,Stacked Townhouse ,"Forced Air,  Natural Gas ",Central Air ,False,,False,False,townhouse-indicator,False,500.90180360721445,,False,True,True,False
233,2,4763065,"Single Family Residence, Two Story ",Single Family Residence,Detached,2450.0,4,0,4,3,1,3.5,1077500.0,2025-01-31,272 Broadacre Drive ,Kitchener ,Ontario,N2R 0S6,43.3775,-80.4771,3910.0,,Unfinished ,,Two Story ,"Forced Air,  Natural Gas ",Central Air ,False,,False,False,detached-indicator,False,439.7959183673469,,False,True,True,True
234,2,4763065,"Single Family Residence, Two Story ",Single Family Residence,Detached,2585.0,4,0,4,2,1,2.5,1065000.0,2025-01-31,63 Netherwood Road ,Kitchener ,Ontario,N2P 2X5,43.3735,-80.4347,4690.0,,Unfinished ,,Two Story ,Forced Air ,Central Air ,False,,False,False,detached-indicator,False,411.99226305609284,,False,True,True,True
235,2,4763065,"Freehold Townhouse, 2-Storey ",Freehold Townhouse,Townhouse,1639.0,3,0,3,0,0,0.0,755000.0,2025-02-03,57 Woodedge Circle ,Kitchener ,Ontario,N2R 0P8,43.3813,-80.4743,2600.0,,Unfinished ,,2-Storey ,Forced Air ,Central Air ,False,,True,False,townhouse-indicator,False,460.64673581452104,,False,True,True,True
236,2,4763065,"Detached, 2-Storey ",Detached,Detached,1750.0,5,0,5,0,0,0.0,940000.0,2025-02-03,47 Watermill Street ,Kitchener ,Ontario,N2P 2X5,43.3744,-80.4325,3450.0,,"Finished, Separate Entrance ",,2-Storey ,Forced Air ,Central Air ,False,,True,False,detached-indicator,False,537.1428571428571,,False,True,True,True
237,2,4763065,"Detached, 2-Storey ",Detached,Detached,2750.0,4,0,4,0,0,0.0,1150000.0,2025-02-05,31 Rockcliffe Drive ,Kitchener ,Ontario,N2R 1W5,43.3847,-80.4699,5035.0,,Unfinished ,,2-Storey ,Forced Air ,Central Air ,False,,True,False,detached-indicator,False,418.1818181818182,,False,True,True,True
238,2,4763065,"Freehold Townhouse, Bungalow ",Freehold Townhouse,Townhouse,1750.0,3,0,3,0,0,0.0,925000.0,2025-02-06,179 Doon Mills Dr ,Kitchener ,Ontario,N2P 2S1,43.3865,-80.4328,2014.0,,Finished ,,Bungalow ,Forced Air ,Central Air ,False,,True,False,townhouse-indicator,False,528.5714285714286,,False,True,True,False
239,2,4763065,"Single Family Residence, Two Story ",Single Family Residence,Detached,2786.0,4,0,4,3,1,3.5,1195000.0,2025-02-07,Unit Lot 0032 - 162 Shaded Creek Drive ,Kitchener ,Ontario,N2P 0K7,43.3655,-80.4414,4000.0,,Unfinished ,,Two Story ,"Forced Air,  Natural Gas,  Heat Pump ","Energy Efficient,  Other ",False,,False,False,detached-indicator,False,428.9303661162958,,False,True,True,True
240,2,4763065,"Single Family Residence, Two Story ",Single Family Residence,Detached,2578.0,4,0,4,2,1,2.5,1135000.0,2025-02-07,900 Steepleridge Court ,Kitchener ,Ontario,N2P 2X4,43.3758,-80.4365,4223.0,2012.0,Finished ,,Two Story ,"Forced Air,  Natural Gas ","Central Air,  Humidity Control ",False,,False,False,detached-indicator,False,440.2637703646237,13.0,True,True,True,True
241,2,4763065,"Single Family Residence, 1.5 Storey ",Single Family Residence,Detached,2783.0,3,0,3,1,1,1.5,1225000.0,2025-02-08,2259 Cedar Creek Road ,North Dumfries ,Ontario,N0B 1E0,43.3362,-80.4174,4983.5,1870.0,Unfinished ,,1.5 Storey ,Oil Forced Air ,None,False,,False,False,detached-indicator,False,440.17247574559826,155.0,True,True,False,False
242,2,4763065,"Single Family Residence, Two Story ",Single Family Residence,Detached,1525.0,3,0,3,3,1,3.5,890000.0,2025-02-14,149 Maitland Street ,Kitchener ,Ontario,N2R 0C2,43.3868,-80.4792,3100.0,2015.0,"Finished, Full ",,Two Story ,"Forced Air,  Natural Gas ",Central Air ,False,,False,False,detached-indicator,False,583.6065573770492,10.0,True,True,True,True
243,2,4763065,"Detached, Bungaloft ",Detached,Detached,2166.0,3,0,3,0,0,0.0,1030000.0,2025-02-14,760 ROBERT FERRIE Drive ,Kitchener ,Ontario,N2R 0B2,43.3779,-80.4427,4576.0,,"Partially Finished, Full ",,Bungaloft ,Forced Air ,Central Air ,False,,True,False,detached-indicator,False,475.5309325946445,,False,True,True,True
244,2,4763065,"Condo/Apt Unit, Two Story ",Condo/Apt Unit,Condominium,1729.0,4,0,4,2,0,2.0,2600.0,2025-02-19,Unit 41 - 15 Stauffer Woods Trail ,Kitchener ,Ontario,N2P 2P3,43.3671,-80.443,1888.8,,None,,Two Story ,Natural Gas ,Central Air ,False,,False,False,condo-indicator,False,1.5037593984962405,,False,False,True,False
246,2,4763065,"Single Family Residence, Two Story ",Single Family Residence,Detached,2717.0,6,0,6,3,1,3.5,1185000.0,2025-02-19,443 Hearthwood Drive ,Kitchener ,Ontario,N2R 1K6,43.383,-80.4552,5050.0,,Finished ,,Two Story ,"Forced Air,  Heat Pump ","Central Air,  Energy Efficient ",False,,False,False,detached-indicator,False,436.14280456385717,,False,True,True,True
247,2,4763065,"Row/Townhouse, Two Story ",Row/Townhouse,Townhouse,1215.0,3,0,3,3,1,3.5,765000.0,2025-02-20,51 Meadowridge Street ,Kitchener ,Ontario,N2P 2N3,43.3739,-80.4393,2704.0,2015.0,Finished ,,Two Story ,"Forced Air,  Natural Gas ",Central Air ,False,,False,False,townhouse-indicator,False,629.6296296296297,10.0,True,True,True,True
248,2,4763065,"Single Family Residence, Two Story ",Single Family Residence,Detached,2590.0,4,0,4,3,1,3.5,1095000.0,2025-02-20,126 Broadacre Drive ,Kitchener ,Ontario,N2R 1R7,43.3766,-80.4825,3910.0,,Unfinished ,,Two Story ,"Fireplace(s),  Forced Air ",Central Air ,False,,False,False,detached-indicator,False,422.7799227799228,,False,True,True,True
249,2,4763065,"Single Family Residence, Two Story ",Single Family Residence,Detached,2308.0,6,0,6,3,1,3.5,1080000.0,2025-02-20,703 Robert Ferrie Drive ,Kitchener ,Ontario,N2P 2R3,43.3789,-80.4406,3600.0,2011.0,"Finished, Walk-Out Access ",,Two Story ,"Forced Air,  Natural Gas ",Central Air ,False,,False,False,detached-indicator,False,467.9376083188908,14.0,True,True,True,True
250,2,4763065,"Single Family Residence, Two Story ",Single Family Residence,Detached,1642.0,3,0,3,2,1,2.5,805493.0,2025-02-21,Unit LOT 0103 - 100 Jacob Detweiller Drive ,Kitchener ,Ontario,N2P 0K7,43.3659,-80.4429,2760.0,,Unfinished ,,Two Story ,"Forced Air,  Natural Gas,  Heat Pump ","Energy Efficient,  Other ",False,,False,False,detached-indicator,False,490.55602923264314,,False,True,True,True
251,2,4763065,"Single Family Residence, Bungalow ",Single Family Residence,Detached,1196.0,5,0,5,2,0,2.0,790000.0,2025-02-21,63 Wheatfield Crescent ,Kitchener ,Ontario,N2P 1P7,43.3902,-80.4462,4950.0,1985.0,"Finished, Walk-Out Access ",,Bungalow ,Forced Air ,Central Air ,False,,False,False,detached-indicator,False,660.5351170568562,40.0,True,True,True,True
253,2,4763065,"Single Family Residence, Two Story ",Single Family Residence,Detached,3420.0,4,0,4,3,1,3.5,1350000.0,2025-02-21,95 Georgina Street ,Kitchener ,Ontario,N2R 0S6,43.3785,-80.4783,5733.0,,"Unfinished, Unfinished ",,Two Story ,Natural Gas ,Central Air ,False,,False,False,detached-indicator,False,394.7368421052632,,False,True,True,True
256,2,4763065,"Detached, 2-Storey ",Detached,Detached,2546.0,6,0,6,0,0,0.0,1100000.0,2025-02-25,27 Elmbank Trail ,Kitchener ,Ontario,N2R 0B3,43.3761,-80.4439,4251.0,,"Finished, Apartment ",,2-Storey ,Forced Air ,None,False,,True,False,detached-indicator,False,432.05027494108407,,False,True,False,True
257,2,4763065,"Single Family Residence, Two Story ",Single Family Residence,Detached,1597.0,3,0,3,2,1,2.5,875000.0,2025-02-26,174 Parkvale Drive ,Kitchener ,Ontario,N2R 1Z1,43.389,-80.4771,3535.0,,"Finished, Walk-Out Access ",,Two Story ,"Forced Air,  Natural Gas ",Central Air ,False,,False,False,detached-indicator,False,547.9023168440826,,False,True,True,True
258,2,4763065,"Row/Townhouse, Two Story ",Row/Townhouse,Townhouse,1538.0,2,0,2,2,1,2.5,538000.0,2025-02-27,Unit 21C - 388 Old Huron Road ,Kitchener ,Ontario,N2R 0J6,43.3926,-80.4635,2014.0,,None ,,Two Story ,"Forced Air,  Natural Gas ",Central Air ,False,,False,False,townhouse-indicator,False,349.80494148244475,,False,True,True,False
259,2,4763065,"Single Family Residence, 2.5 Storey ",Single Family Residence,Detached,2176.0,6,0,6,3,1,3.5,970000.0,2025-02-27,11 Frankfurt Street ,Kitchener ,Ontario,N2R 1T5,43.3837,-80.4857,3328.0,2007.0,"Finished, Separate Entrance ",,2.5 Storey ,"Fireplace-Gas,  Forced Air,  Natural Gas ",Central Air ,False,,False,False,detached-indicator,False,445.7720588235294,18.0,True,True,True,True
260,2,4763065,"Single Family Residence, Two Story ",Single Family Residence,Detached,1807.0,3,0,3,1,1,1.5,820000.0,2025-02-28,94 Sophia Crescent ,Kitchener ,Ontario,N2R 1X6,43.3861,-80.4876,3180.0,2006.0,Unfinished ,,Two Story ,"Forced Air,  Natural Gas ",Central Air ,False,,False,False,detached-indicator,False,453.7908135030437,19.0,True,True,True,True
261,2,4763065,"Single Family Residence, Two Story ",Single Family Residence,Detached,1669.0,3,0,3,1,1,1.5,810000.0,2025-02-28,218 Doon Mills Drive ,Kitchener ,Ontario,N2P 2R9,43.3873,-80.4341,5520.0,2003.0,"Unfinished, Unfinished ",,Two Story ,"Forced Air,  Natural Gas ",Central Air ,False,,False,False,detached-indicator,False,485.3205512282804,22.0,True,True,True,True
262,2,4763065,"Condo/Apt Unit, Two Story ",Condo/Apt Unit,Condominium,1550.0,3,0,3,3,0,3.0,579000.0,2025-03-02,78 Wheat Lane ,Kitchener ,Ontario,N2R 0R6,43.3797,-80.4828,1888.8,2022.0,None,,Two Story ,"Forced Air,  Natural Gas ",Central Air ,False,,False,False,condo-indicator,False,373.5483870967742,3.0,True,False,True,False
263,2,4763065,"Row/Townhouse, Stacked Townhouse ",Row/Townhouse,Townhouse,753.0,1,0,1,1,0,1.0,370000.0,2025-03-03,Unit A - 228 Jessica Crescent ,Kitchener ,Ontario,N2R 1X7,43.3852,-80.4884,2014.0,2013.0,None ,,Stacked Townhouse ,"Forced Air,  Natural Gas ",Central Air ,False,,False,False,townhouse-indicator,False,491.36786188579015,12.0,True,True,True,False
264,2,4763065,"Single Family Residence, Two Story ",Single Family Residence,Detached,3128.0,6,0,6,3,1,3.5,1200000.0,2025-03-03,48 Southridge Drive ,Kitchener ,Ontario,N2P 2Y2,43.3756,-80.4294,6888.0,,Finished ,,Two Story ,"Forced Air,  Natural Gas ",Central Air ,False,,False,False,detached-indicator,False,383.6317135549872,,False,True,True,True
265,2,4763065,"Row/Townhouse, 3 Storey ",Row/Townhouse,Townhouse,1695.0,3,0,3,2,1,2.5,755000.0,2025-03-04,118 Monarch Woods Drive ,Kitchener ,Ontario,N2P 2N7,43.3786,-80.4201,1764.0,2021.0,"Finished, Walk-Out Access ",,3 Storey ,"Forced Air,  Natural Gas ",Central Air ,False,,False,False,townhouse-indicator,False,445.42772861356934,4.0,True,True,True,True
266,2,4763065,"Single Family Residence, Two Story ",Single Family Residence,Detached,2003.0,4,0,4,2,1,2.5,949900.0,2025-03-04,Unit Lot 0029 - 150 Shaded Creek Drive ,Kitchener ,Ontario,N2P 0K7,43.3655,-80.441,3000.0,,Unfinished ,,Two Story ,"Forced Air,  Natural Gas,  Heat Pump ","Energy Efficient,  Other ",False,,False,False,detached-indicator,False,474.2386420369446,,False,True,True,True
267,2,4763065,"Single Family Residence, Two Story ",Single Family Residence,Detached,2441.0,4,0,4,3,1,3.5,1100000.0,2025-03-04,38 Mistywood Street ,Kitchener ,Ontario,N2P 2N1,43.3719,-80.4379,3852.0,2016.0,Finished ,,Two Story ,"Fireplace(s),  Forced Air,  Natural Gas ",Central Air ,False,,False,False,detached-indicator,False,450.6349856616141,9.0,True,True,True,True
268,2,4763065,"Detached, 2-Storey ",Detached,Detached,2264.0,4,0,4,0,0,0.0,942000.0,2025-03-05,63 Saddlebrook Court ,Kitchener ,Ontario,N2R 0P6,43.3849,-80.4741,4116.0,,"Unfinished, Walk-Out ",,2-Storey ,Forced Air ,Central Air ,False,,True,False,detached-indicator,False,416.07773851590105,,False,True,True,True
269,2,4763065,"Row/Townhouse, Two Story ",Row/Townhouse,Townhouse,1450.0,3,0,3,2,1,2.5,625000.0,2025-03-06,Unit 16 - 235 Chapel Hill Drive ,Kitchener ,Ontario,N2R 0S4,43.3788,-80.4514,2014.0,,None ,,Two Story ,"Forced Air,  Natural Gas ",Central Air ,False,,False,False,townhouse-indicator,False,431.0344827586207,,False,True,True,False
274,2,4763065,"Single Family Residence, Two Story ",Single Family Residence,Detached,3200.0,4,0,4,3,1,3.5,1400000.0,2025-03-10,300 Forest Creek Drive ,Kitchener ,Ontario,N2R 0M6,43.3845,-80.4444,4725.0,,"Unfinished, Walk-Out Access ",,Two Story ,Forced Air ,Central Air ,False,,False,False,detached-indicator,False,437.5,,False,True,True,True
275,2,4763065,"Row/Townhouse, Two Story ",Row/Townhouse,Townhouse,1818.0,3,0,3,3,1,3.5,822000.0,2025-03-12,104 Hollybrook Trail ,Kitchener ,Ontario,N2P 2R3,43.3825,-80.4428,2166.0,2019.0,"Finished, Full ",,Two Story ,"Forced Air,  Natural Gas ",Central Air ,False,,False,False,townhouse-indicator,False,452.14521452145215,6.0,True,True,True,True
276,2,4763065,"Condo Townhouse, Stacked Townhouse ",Condo Townhouse,Condominium,750.0,1,0,1,0,0,0.0,386500.0,2025-03-12,388 Old Huron Road ,Kitchener ,Ontario,N2R 0J6,43.3926,-80.4635,1888.8,,None ,,Stacked Townhouse ,Forced Air ,None,False,,True,False,condo-indicator,False,515.3333333333334,,False,True,False,False
278,2,4763065,"Semi Detached, Single Family Residence, Two Story ","Semi Detached, Single Family Residence",Semi-Detached,1370.0,3,0,3,1,1,1.5,700800.0,2025-03-12,72 Old Huron Court ,Kitchener ,Ontario,N2R 1L7,43.3965,-80.4537,3000.0,1992.0,Partially Finished ,,Two Story ,"Forced Air,  Natural Gas ",Central Air ,False,,False,False,semi-detached-indicator,False,511.53284671532845,33.0,True,True,True,True
279,2,4763065,"Condo Townhouse, Stacked Townhouse ",Standard,Condominium,950.0,2,0,2,0,0,0.0,473000.0,2025-03-13,Unit 79 - 158 Wheat Lane ,Kitchener ,Ontario,N2R 0R4,43.38,-80.4811,1888.8,,None ,,Stacked Townhouse ,Forced Air ,Central Air ,False,,True,False,condo-indicator,False,497.89473684210526,,False,True,True,False
280,2,4763065,"Row/Townhouse, Stacked Townhouse ",Row/Townhouse,Townhouse,1100.0,2,0,2,1,1,1.5,510000.0,2025-03-13,Unit C - 237 Rachel Crescent ,Kitchener ,Ontario,N2R 0E1,43.3834,-80.48780000000001,2014.0,,None ,,Stacked Townhouse ,"Forced Air,  Hot Water-Other ",Central Air ,False,,False,False,townhouse-indicator,False,463.6363636363636,,False,True,True,False
281,2,4763065,"Row/Townhouse, 3 Storey ",Row/Townhouse,Townhouse,2089.0,3,0,3,2,1,2.5,760000.0,2025-03-13,42 Outlook Terrace ,Kitchener ,Ontario,N2R 1R4,43.3817,-80.4947,2460.0,2016.0,None,,3 Storey ,"Forced Air,  Natural Gas ",Central Air ,False,,False,False,townhouse-indicator,False,363.81043561512683,9.0,True,False,True,True
283,2,4763065,"Condo/Apt Unit, 1 Storey/Apt ",Condo/Apt Unit,Condominium,1332.0,2,0,2,2,1,2.5,544000.0,2025-03-14,Unit 50 - 261 Woodbine Avenue ,Kitchener ,Ontario,N2R 0P7,43.3921,-80.4858,1888.8,2023.0,None,,1 Storey/Apt ,"Forced Air,  Natural Gas ",Central Air ,False,,False,False,condo-indicator,False,408.40840840840843,2.0,True,False,True,False
285,2,4763065,"Detached, 2-Storey ",Detached,Detached,2750.0,4,0,4,0,0,0.0,1249000.0,2025-03-16,3 William Dunlop Street ,Kitchener ,Ontario,N2R 0N7,43.3821,-80.4831,3700.0,,Finished ,,2-Storey ,Forced Air ,Central Air ,False,,True,False,detached-indicator,False,454.1818181818182,,False,True,True,True
288,2,4763065,"Detached, 2-Storey ",Detached,Detached,1750.0,3,0,3,0,0,0.0,1020000.0,2025-03-24,310 NORTHUMBERLAND Street ,North Dumfries ,Ontario,N0B 1E0,43.2963,-80.4615,0.0,,"Partially Finished, Partial Basement ",,2-Storey ,Forced Air ,Central Air ,False,,True,False,detached-indicator,False,582.8571428571429,,False,True,True,True
290,2,4763065,"Single Family Residence, Two Story ",Single Family Residence,Detached,2600.0,4,0,4,3,1,3.5,1284900.0,2025-03-24,27 Spachman Street ,Kitchener ,Ontario,N2R 0N5,43.3831,-80.4786,3978.0,2019.0,Unfinished ,,Two Story ,"Forced Air,  Natural Gas ",Central Air ,False,,False,False,detached-indicator,False,494.1923076923077,6.0,True,True,True,True
291,2,4763065,"Single Family Residence, Two Story ",Single Family Residence,Detached,2485.0,4,0,4,2,1,2.5,1155000.0,2025-03-24,931 Stonecliffe Walk ,Kitchener ,Ontario,N2P 2N1,43.3702,-80.4362,5880.0,2023.0,"Unfinished, Walk-Out Access ",,Two Story ,"Forced Air,  Natural Gas ",Central Air ,False,,False,False,detached-indicator,False,464.7887323943662,2.0,True,True,True,True
292,2,4763065,"Row/Townhouse, Two Story ",Row/Townhouse,Townhouse,1469.0,3,0,3,2,1,2.5,715000.0,2025-03-24,55 Meadowridge Street ,Kitchener ,Ontario,N2P 2N3,43.3738,-80.4392,1872.0,2015.0,Unfinished ,,Two Story ,"Forced Air,  Natural Gas ",Central Air ,False,,False,False,townhouse-indicator,False,486.72566371681415,10.0,True,True,True,True
293,2,4763065,"Row/Townhouse, Stacked Townhouse ",Row/Townhouse,Townhouse,400.0,1,0,1,1,1,1.5,400000.0,2025-03-25,Unit 4 - 275 Old Huron Road ,Kitchener ,Ontario,N2R 1P9,43.3956,-80.4613,2014.0,2012.0,Finished ,,Stacked Townhouse ,"Forced Air,  Natural Gas ",Central Air ,False,,False,False,townhouse-indicator,False,1000.0,13.0,True,True,True,False
296,2,4763065,"Detached, 2-Storey ",Detached,Detached,2750.0,6,0,6,0,0,0.0,1475000.0,2025-03-25,99 Georgina Street ,Kitchener ,Ontario,N2R 0S6,43.3786,-80.4781,6000.0,,"Full, Finished ",,2-Storey ,Forced Air ,Central Air ,False,,True,False,detached-indicator,False,536.3636363636364,,False,True,True,True
297,2,4763065,"Single Family Residence, Two Story ",Single Family Residence,Detached,3935.0,4,0,4,4,1,4.5,1348000.0,2025-03-26,42 Oakdale Court ,Kitchener ,Ontario,N2P 2S9,43.3871,-80.4374,7224.0,2003.0,"Finished, Walk-Out Access ",,Two Story ,"Forced Air,  Natural Gas ",Central Air ,False,,False,False,detached-indicator,False,342.566709021601,22.0,True,True,True,True
298,2,4763065,"Single Family Residence, Sidesplit ",Single Family Residence,Detached,2016.0,4,0,4,3,0,3.0,1200000.0,2025-03-26,2 Marshall Avenue ,North Dumfries ,Ontario,N0B 1E0,43.3418,-80.4747,4983.5,,"Finished, Walk-Up Access ",,Sidesplit ,"Fireplace-Gas,  Forced Air,  Radiant Floor ",Central Air ,False,,False,False,detached-indicator,False,595.2380952380952,,False,True,True,False
300,2,4763065,"Single Family Residence, 1.5 Storey ",Single Family Residence,Detached,1147.0,3,0,3,1,0,1.0,687500.0,2025-03-28,1414 Bridge Street ,Wilmot ,Ontario,N3A 3E4,43.3502,-80.5312,4983.5,,Partially Finished ,,1.5 Storey ,Heat Pump ,Other ,False,,False,False,detached-indicator,False,599.389712292938,,False,True,True,False
301,2,4763065,"Condo Townhouse, Stacked Townhouse ",Condo Townhouse,Condominium,750.0,1,0,1,0,0,0.0,422000.0,2025-03-28,Unit 18 - 275 OLD HURON Road ,Kitchener ,Ontario,N2R 1P9,43.3956,-80.4613,1888.8,,"Finished, Full ",,Stacked Townhouse ,Forced Air ,Central Air ,False,,True,False,condo-indicator,False,562.6666666666666,,False,True,True,False
304,2,4763065,"Single Family Residence, Two Story ",Single Family Residence,Detached,2356.0,5,0,5,3,1,3.5,982000.0,2025-04-01,618 Doon South Drive ,Kitchener ,Ontario,N2P 2X4,43.3758,-80.4337,4983.5,,"Finished, Walk-Up Access ",,Two Story ,"Forced Air,  Natural Gas ",Central Air ,False,,False,False,detached-indicator,False,416.8081494057725,,False,True,True,False
305,2,4763065,"Single Family Residence, Two Story ",Single Family Residence,Detached,2115.0,6,0,6,3,1,3.5,1125000.0,2025-04-01,92 Rush Meadow Street ,Kitchener ,Ontario,N2R 1T2,43.3885,-80.4651,5106.0,,"Finished, Other ",,Two Story ,"Forced Air,  Natural Gas ",Central Air ,False,,False,False,detached-indicator,False,531.9148936170212,,False,True,True,True
306,2,4763065,"Single Family Residence, Two Story ",Single Family Residence,Detached,2217.0,4,0,4,2,1,2.5,980000.0,2025-04-02,37 Parkglen Street ,Kitchener ,Ontario,N2R 0L8,43.386,-80.4991,4983.5,,Unfinished ,,Two Story ,"Forced Air,  Natural Gas ",Central Air ,False,,False,False,detached-indicator,False,442.03879115922416,,False,True,True,False
307,2,4763065,"Row/Townhouse, Stacked Townhouse ",Row/Townhouse,Townhouse,1162.0,3,0,3,2,0,2.0,520000.0,2025-04-02,Unit B - 164 Rochefort Street ,Kitchener ,Ontario,N2R 0P5,43.3858,-80.4774,2014.0,,None,,Stacked Townhouse ,"Forced Air,  Natural Gas ",Central Air ,False,,False,False,townhouse-indicator,False,447.5043029259897,,False,False,True,False
308,2,4763065,"Single Family Residence, Bungalow ",Single Family Residence,Detached,1308.0,4,0,4,2,1,2.5,880000.0,2025-04-03,215 Black Walnut Place ,Kitchener ,Ontario,N2P 1T5,43.3919,-80.4539,5777.0,1981.0,"Finished, Walk-Out Access ",,Bungalow ,"Forced Air,  Natural Gas ",Central Air ,False,,False,False,detached-indicator,False,672.782874617737,44.0,True,True,True,True
310,2,4763065,"Detached, 2-Storey ",Detached,Detached,2250.0,4,0,4,0,0,0.0,1040000.0,2025-04-03,121 Haldimand Street ,Kitchener ,Ontario,N3A 3E4,43.3785,-80.483,4983.5,,Unfinished ,,2-Storey ,Forced Air ,Central Air ,False,,True,False,detached-indicator,False,462.22222222222223,,False,True,True,False
312,2,4763065,"Single Family Residence, Two Story ",Single Family Residence,Detached,2470.0,3,0,3,2,1,2.5,1080000.0,2025-04-04,236 Tall Grass Crescent ,Kitchener ,Ontario,N2P 2N3,43.3715,-80.4428,4983.5,,"Unfinished, Unfinished ",,Two Story ,"Fireplace-Gas,  Natural Gas ",Central Air ,False,,False,False,detached-indicator,False,437.246963562753,,False,True,True,False
313,2,4763065,"Single Family Residence, Backsplit ",Single Family Residence,Detached,1950.0,4,0,4,2,0,2.0,840000.0,2025-04-05,53 Apple Ridge Drive ,Kitchener ,Ontario,N2P 2S2,43.3857,-80.4359,4983.5,,Unfinished ,,Backsplit ,Natural Gas ,Central Air ,False,,False,False,detached-indicator,False,430.7692307692308,,False,True,True,False
314,2,4763065,"Row/Townhouse, 3 Storey ",Row/Townhouse,Townhouse,1608.0,3,0,3,1,1,1.5,615000.0,2025-04-08,Unit 1 - 285 Old Huron Road ,Kitchener ,Ontario,N2R 0C4,43.3956,-80.4623,2014.0,2012.0,Unfinished ,,3 Storey ,Forced Air ,Central Air ,False,,False,False,townhouse-indicator,False,382.46268656716416,13.0,True,True,True,False
315,2,4763065,"Single Family Residence, Two Story ",Single Family Residence,Detached,1823.0,3,0,3,3,1,3.5,930000.0,2025-04-08,356 Sienna Crescent ,Kitchener ,Ontario,N2R 1T8,43.3848,-80.4871,4983.5,,Finished ,,Two Story ,Forced Air ,Central Air ,False,,False,False,detached-indicator,False,510.14810751508503,,False,True,True,False
316,2,4763065,"Single Family Residence, Two Story ",Single Family Residence,Detached,1738.0,3,0,3,2,1,2.5,870000.0,2025-04-09,30 Pompeii Street ,Kitchener ,Ontario,N2R 0A8,43.3913,-80.4824,4983.5,,"Unfinished, Unfinished ",,Two Story ,"Forced Air,  Natural Gas ",Central Air ,False,,False,False,detached-indicator,False,500.5753739930955,,False,True,True,False
317,2,4763065,"Single Family Residence, Sidesplit ",Single Family Residence,Detached,2203.0,4,0,4,2,1,2.5,1360000.0,2025-04-10,289 Casselholme Crescent ,Wilmot ,Ontario,N0B 2E0,43.3472,-80.5342,4983.5,,Finished ,,Sidesplit ,"Forced Air,  Natural Gas ",Central Air ,False,,False,False,detached-indicator,False,617.3399909214708,,False,True,True,False
318,2,4763065,"Single Family Residence, Bungalow Raised ",Single Family Residence,Detached,1022.0,3,0,3,1,1,1.5,741000.0,2025-04-10,60 Wheatfield Crescent ,Kitchener ,Ontario,N2P 1P7,43.3905,-80.4468,4983.5,,Finished ,,Bungalow Raised ,Forced Air ,Central Air ,False,,False,False,detached-indicator,False,725.0489236790606,,False,True,True,False
319,2,4763065,"Single Family Residence, Two Story ",Single Family Residence,Detached,1817.0,5,0,5,3,1,3.5,948888.0,2025-04-11,204 Cranbrook Street ,Kitchener ,Ontario,N2P 2V1,43.3772,-80.4358,4983.5,,Finished ,,Two Story ,"Forced Air,  Natural Gas ",Central Air ,False,,False,False,detached-indicator,False,522.2278481012659,,False,True,True,False
320,2,4763065,"Single Family Residence, Two Story ",Single Family Residence,Detached,1556.0,3,0,3,2,1,2.5,825000.0,2025-04-11,366 Steepleridge Street ,Kitchener ,Ontario,N2P 2X4,43.3757,-80.4346,4983.5,,"Finished, Finished ",,Two Story ,"Forced Air,  Natural Gas ",Central Air ,False,,False,False,detached-indicator,False,530.2056555269922,,False,True,True,False
321,2,4763065,"Link, 2-Storey ",Link,Detached,2750.0,4,0,4,0,0,0.0,1130500.0,2025-04-11,61 BROADACRE Drive ,Kitchener ,Ontario,N3A 3E4,43.3766,-80.4847,4983.5,,"Full, Unfinished ",,2-Storey ,Forced Air ,Central Air ,False,,True,False,detached-style,False,411.09090909090907,,False,True,True,False
322,2,4763065,"Single Family Residence, Two Story ",Single Family Residence,Detached,2436.0,4,0,4,3,1,3.5,1039000.0,2025-04-12,321 Woodbine Avenue ,Kitchener ,Ontario,N2R 0L2,43.3923,-80.4842,4983.5,,"Unfinished, Walk-Out Access ",,Two Story ,"Forced Air,  Natural Gas ",Central Air ,False,,False,False,detached-indicator,False,426.51888341543514,,False,True,True,False
325,2,4763065,"Single Family Residence, Two Story ",Single Family Residence,Detached,2544.0,5,0,5,3,1,3.5,1160000.0,2025-04-15,46 Ridgemount Street ,Kitchener ,Ontario,N2P 0J3,43.3756,-80.4186,4983.5,,"Finished, Walk-Out Access ",,Two Story ,"Forced Air,  Natural Gas,  Radiant Floor ",Central Air ,False,,False,False,detached-indicator,False,455.97484276729557,,False,True,True,False
326,2,4763065,"Single Family Residence, Two Story ",Single Family Residence,Detached,2482.0,6,0,6,4,1,4.5,1152000.0,2025-04-16,91 Parkvale Drive ,Kitchener ,Ontario,N2R 1Z6,43.3895,-80.4747,4983.5,,Finished ,,Two Story ,"Forced Air,  Natural Gas ",Central Air ,False,,False,False,detached-indicator,False,464.1418211120064,,False,True,True,False
327,2,4763065,"Single Family Residence, Two Story ",Single Family Residence,Detached,2128.0,4,0,4,2,1,2.5,990000.0,2025-04-17,3 Milt Schmidt Street ,Kitchener ,Ontario,N2R 0T2,43.3948,-80.5026,4983.5,,"Partially Finished, Partially Finished ",,Two Story ,"Forced Air,  Natural Gas ",Central Air ,False,,False,False,detached-indicator,False,465.22556390977445,,False,True,True,False
330,2,4763065,"Freehold Townhouse, 2-Storey ",Freehold Townhouse,Townhouse,1300.0,3,0,3,0,0,0.0,730000.0,2025-04-22,5 Wildflower Street ,Kitchener ,Ontario,N2P 0B7,43.3733,-80.4359,2014.0,,Unfinished ,,2-Storey ,Forced Air ,Central Air ,False,,True,False,townhouse-indicator,False,561.5384615384615,,False,True,True,False
331,2,4763065,"Row/Townhouse, Stacked Townhouse ",Row/Townhouse,Townhouse,1230.0,2,0,2,2,1,2.5,475000.0,2025-04-23,36 Progress Crescent ,Kitchener ,Ontario,N2R 0R7,43.3881,-80.4901,2014.0,,Finished ,,Stacked Townhouse ,"Forced Air,  Heat Pump ",Central Air ,False,,False,False,townhouse-indicator,False,386.1788617886179,,False,True,True,False
333,2,4763065,"Single Family Residence, Two Story ",Single Family Residence,Detached,2080.0,5,0,5,3,2,4.0,955000.0,2025-04-23,110 Steepleridge Street ,Kitchener ,Ontario,N2P 2W2,43.3777,-80.4339,4983.5,,"Finished, Walk-Out ",,Two Story ,"Forced Air,  Natural Gas ",Central Air ,False,,False,False,detached-indicator,False,459.13461538461536,,False,True,True,False
336,2,4763065,"Detached, 2-Storey ",Detached,Detached,1750.0,5,0,5,0,0,0.0,940000.0,2025-04-24,39 Wildflower Street ,Kitchener ,Ontario,N2P 2X5,43.3725,-80.4364,4983.5,,"Apartment, Finished ",,2-Storey ,Forced Air ,Central Air ,False,,True,False,detached-indicator,False,537.1428571428571,,False,True,True,False
337,2,4763065,"Single Family Residence, Bungalow Raised ",Single Family Residence,Detached,995.0,3,0,3,1,1,1.5,699000.0,2025-04-25,40 Sabrina Crescent ,Kitchener ,Ontario,N2P 1Y6,43.389,-80.4461,4983.5,,Finished ,,Bungalow Raised ,"Forced Air,  Natural Gas ",Central Air ,False,,False,False,detached-indicator,False,702.5125628140704,,False,True,True,False
338,2,4763065,"Single Family Residence, Two Story ",Single Family Residence,Detached,2800.0,4,0,4,4,1,4.5,1200000.0,2025-04-25,63 Georgina Street ,Kitchener ,Ontario,N2R 0S6,43.3783,-80.4796,4983.5,,"Finished, Walk-Up Access ",,Two Story ,"Fireplace-Gas,  Natural Gas ",Central Air ,False,,False,False,detached-indicator,False,428.57142857142856,,False,True,True,False
339,2,4763065,"Single Family Residence, Two Story ",Single Family Residence,Detached,2596.0,5,0,5,4,1,4.5,1200000.0,2025-04-25,172 Rockcliffe Drive ,Kitchener ,Ontario,N2R 1W6,43.382,-80.4726,4983.5,,"Partially Finished, Walk-Out Access ",,Two Story ,"Forced Air,  Natural Gas ",Central Air ,False,,False,False,detached-indicator,False,462.24961479198765,,False,True,True,False
340,2,4763065,"Single Family Residence, Two Story ",Single Family Residence,Detached,2200.0,4,0,4,2,1,2.5,995000.0,2025-04-28,23 Shoreacres Drive ,Kitchener ,Ontario,N2R 1R4,43.3815,-80.4978,4983.5,,Unfinished ,,Two Story ,"Forced Air,  Natural Gas ",Central Air ,False,,False,False,detached-indicator,False,452.27272727272725,,False,True,True,False
341,2,4763065,"Row/Townhouse, 3 Storey ",Row/Townhouse,Townhouse,1371.0,3,0,3,1,1,1.5,565000.0,2025-04-28,563 Goldenrod Lane ,Kitchener ,Ontario,N2R 0L7,43.3889,-80.4913,2014.0,,None,,3 Storey ,"Forced Air,  Natural Gas ",Central Air ,False,,False,False,townhouse-indicator,False,412.10795040116705,,False,False,True,False
343,2,4763065,"Detached, 2-Storey ",Detached,Detached,2250.0,4,0,4,0,0,0.0,920000.0,2025-04-28,243 Seabrook Drive ,Kitchener ,Ontario,N2R 0G2,43.3861,-80.4948,4983.5,,Unfinished ,,2-Storey ,Forced Air ,Central Air ,False,,True,False,detached-indicator,False,408.8888888888889,,False,True,True,False
346,2,4763065,"Single Family Residence, Two Story ",Single Family Residence,Detached,1338.0,3,0,3,2,1,2.5,750000.0,2025-04-29,115 Vintage Crescent ,Kitchener ,Ontario,N2P 1L1,43.3931,-80.4476,4983.5,,Partially Finished ,,Two Story ,"Forced Air,  Natural Gas ",Central Air ,False,,False,False,detached-indicator,False,560.5381165919282,,False,True,True,False
348,2,4763065,"Single Family Residence, Two Story ",Single Family Residence,Detached,3510.0,5,0,5,4,1,4.5,1380000.0,2025-05-01,537 Topper Woods Crescent ,Kitchener ,Ontario,N2P 2Y3,43.3786,-80.4295,4983.5,,"Finished, Walk-Out Access ",,Two Story ,"Fireplace-Gas,  Forced Air,  Natural Gas ",Central Air ,False,,False,False,detached-indicator,False,393.1623931623932,,False,True,True,False
349,2,4763065,"Semi Detached, Single Family Residence, Two Story ","Semi Detached, Single Family Residence",Semi-Detached,1560.0,3,0,3,2,1,2.5,755000.0,2025-05-02,8 Seabrook Drive ,Kitchener ,Ontario,N2R 1Y2,43.388,-80.486,3035.0,,Finished ,,Two Story ,"Forced Air,  Natural Gas ",Central Air ,False,,False,False,semi-detached-indicator,False,483.97435897435895,,False,True,True,False
350,2,4763065,"Single Family Residence, Two Story ",Single Family Residence,Detached,2839.0,4,0,4,3,1,3.5,1079000.0,2025-05-02,11 Hearthbridge Street ,Kitchener ,Ontario,N2R 1L5,43.3829,-80.4574,4983.5,,Finished ,,Two Story ,"Forced Air,  Natural Gas ",Central Air ,False,,False,False,detached-indicator,False,380.0634026065516,,False,True,True,False
353,2,4763065,"Row/Townhouse, Bungalow ",Row/Townhouse,Townhouse,1475.0,3,0,3,3,0,3.0,842000.0,2025-05-04,Unit 12 - 900 Doon Village Road ,Kitchener ,Ontario,N2P 1A4,43.3913,-80.4393,2014.0,,Finished ,,Bungalow ,"Forced Air,  Natural Gas ",Central Air ,False,,False,False,townhouse-indicator,False,570.8474576271186,,False,True,True,False
355,2,4763065,"Single Family Residence, 2.5 Storey ",Single Family Residence,Detached,3000.0,4,0,4,4,1,4.5,1275000.0,2025-05-05,955 Stonecliffe Walk ,Kitchener ,Ontario,N2P 0K5,43.3702,-80.4373,4983.5,,"Finished, Walk-Out Access ",,2.5 Storey ,"Forced Air,  Natural Gas ",Central Air ,False,,False,False,detached-indicator,False,425.0,,False,True,True,False
357,2,4763065,"Single Family Residence, Two Story ",Single Family Residence,Detached,1606.0,3,0,3,3,1,3.5,860000.0,2025-05-05,593 Blair Creek Drive ,Kitchener ,Ontario,N2P 2N1,43.3718,-80.4359,4983.5,,Finished ,,Two Story ,"Forced Air,  Natural Gas ",Central Air ,False,,False,False,detached-indicator,False,535.491905354919,,False,True,True,False
359,2,4763065,"Row/Townhouse, Two Story ",Row/Townhouse,Townhouse,1497.0,3,0,3,3,1,3.5,765000.0,2025-05-05,303 Old Huron Road ,Kitchener ,Ontario,N2R 0A3,43.3946,-80.4625,2014.0,,Finished ,,Two Story ,"Fireplace(s),  Forced Air,  Natural Gas ",Central Air ,False,,False,False,townhouse-indicator,False,511.02204408817636,,False,True,True,False
361,2,4763065,"Single Family Residence, Two Story ",Single Family Residence,Detached,2931.0,4,0,4,3,1,3.5,1160000.0,2025-05-08,111 Autumn Ridge Trail ,Kitchener ,Ontario,N2P 2K1,43.3792,-80.418,4983.5,,"Finished, Separate Entrance ",,Two Story ,"Forced Air,  Natural Gas ",Central Air ,False,,False,False,detached-indicator,False,395.76936199249405,,False,True,True,False
362,2,4763065,"Condo Townhouse, Bungalow ",Condo Townhouse,Condominium,1500.0,2,0,2,0,0,0.0,632500.0,2025-05-09,Unit B - 201 Rachel Crescent ,Kitchener ,Ontario,N2R 0H7,43.3842,-80.4874,1888.8,,None ,,Bungalow ,Forced Air ,Central Air ,False,,True,False,condo-indicator,False,421.6666666666667,,False,True,True,False
366,2,4763065,"Single Family Residence, Two Story ",Single Family Residence,Detached,2468.0,3,0,3,2,1,2.5,980000.0,2025-05-11,94 Parkvale Drive ,Kitchener ,Ontario,N2R 1Z6,43.3899,-80.475,4983.5,,Unfinished ,,Two Story ,"Fireplace-Gas,  Forced Air,  Natural Gas ",Central Air ,False,,False,False,detached-indicator,False,397.08265802269045,,False,True,True,False
367,2,4763065,"Single Family Residence, Two Story ",Single Family Residence,Detached,2719.0,6,0,6,5,1,5.5,1290000.0,2025-05-12,616 Florencedale Crescent ,Kitchener ,Ontario,N2R 0N4,43.3824,-80.48,4983.5,,"Finished, Separate Entrance ",,Two Story ,"Forced Air,  Natural Gas ",Central Air ,False,,False,False,detached-indicator,False,474.43913203383596,,False,True,True,False
368,3,4763086,"Detached, 1 1/2 Storey ",Detached,Detached,1839.0,2,0,2,0,0,0.0,440150.0,2024-11-18,501 CLOTHIER Street E,North Grenville Twp ,Ontario,K0G 1J0,45.0212,-75.643,7667.7,1900.0,"Fully Finished, Full ",,1 1/2 Storey ,Forced Air ,Central Air Conditioning ,False,,True,False,detached-indicator,False,239.34203371397498,125.0,True,True,True,True
369,3,4763086,"Detached, 2 Storey ",Detached,Detached,1720.0,3,0,3,0,0,0.0,605000.0,2024-11-22,311 JOSEPH Street,North Grenville Twp ,Ontario,K0G 1J0,45.0158,-75.6398,5877.0,1900.0,"Unfinished, Low ",,2 Storey ,Forced Air ,Central Air Conditioning ,False,,True,False,detached-indicator,False,351.74418604651163,125.0,True,True,True,True
370,3,4763086,"Detached, Bungalow(1 Storey) ",Detached,Detached,2056.0,3,0,3,0,0,0.0,1010000.0,2024-11-22,518 KINDRED Crescent ,Kemptville ,Ontario,K0G 1J0,45.0384,-75.6857,7481.09,2018.0,"Fully Finished, Full ",,Bungalow(1 Storey) ,Forced Air ,Central Air Conditioning ,False,,True,False,detached-indicator,False,491.2451361867704,7.0,True,True,True,True
371,3,4763086,"Freehold Townhouse, 2-Storey ",Freehold Townhouse,Townhouse,1648.0,3,0,3,0,0,0.0,489990.0,2024-11-28,614 KEATONS Way ,North Grenville ,Ontario,K0G 1J0,45.0174,-75.6665,2100.0,,"Finished, Full ",,2-Storey ,Forced Air ,Central Air ,False,,True,False,townhouse-indicator,False,297.3240291262136,,False,True,True,True
372,3,4763086,Bungalow,Detached,Detached,2046.0,2,0,2,0,0,0.0,737000.0,2024-12-02,1814 BEDELL Rd,North Grenville,Ontario,K0G 1S0,44.9714,-75.6772,244.0,,"Finished, Full",,,Forced Air,Central Air,False,,False,False,detached-indicator,False,360.21505376344084,,False,True,True,True
374,3,4763086,"Semi-Detached, Bungalow ",Semi-Detached,Semi-Detached,2465.0,4,0,4,0,0,0.0,710000.0,2024-12-06,33 GALENS Way,North Grenville ,Ontario,K0G 1J0,45.0116,-75.6556,3035.0,,"Full, Finished ",,Bungalow ,Forced Air ,Central Air ,False,,True,False,semi-detached-indicator,False,288.03245436105476,,False,True,True,False
375,3,4763086,Detached,Detached,Detached,2497.0,4,0,4,3,0,3.0,979900.0,2024-12-12,3232 HARVESTER Cres,Kemptville,Ontario,K0G 1J0,45.0237,-75.6603,4983.5,,"Finished, Full",,One,Forced Air,Central Air,False,,False,False,detached-indicator,False,392.4309171005206,,False,True,True,False
377,3,4763086,"Detached, Bungalow-Raised ",Detached,Detached,1726.0,3,0,3,0,0,0.0,585000.0,2024-12-12,1157 COUNTY 18 Road ,North Grenville ,Ontario,Unknown,45.0214,-75.653,72450.0,,"Full, Finished ",,Bungalow-Raised ,Forced Air ,Central Air ,False,,True,False,detached-indicator,False,338.9339513325608,,False,True,True,True
378,3,4763086,"Detached, 2-Storey ",Detached,Detached,1837.0,3,0,3,0,0,0.0,629990.0,2024-12-12,147 ROBERT PERRY Street ,North Grenville ,Ontario,K0G 1J0,45.018,-75.6627,3100.0,,"Full, Finished ",,2-Storey ,Forced Air ,None,False,,True,False,detached-indicator,False,342.9450190528035,,False,True,False,True
380,3,4763086,Detached,Detached,Detached,5082.0,3,0,3,0,0,0.0,650000.0,2024-12-23,1844 GLENCREST Rd,Kemptville,Ontario,K0G 1J0,45.0223,-75.6583,3178.32,,"Finished, Full",,Two,Forced Air,Central Air,False,,False,False,detached-indicator,False,127.90240062967335,,False,True,True,True
382,3,4763086,Detached,Detached,Detached,3698.0,4,0,4,3,0,3.0,1200000.0,2024-12-24,2390 CONCESSION Rd,Kemptville,Ontario,K0G 1J0,45.0005,-75.6576,446.06,,"Full, Unfinished",,2,Baseboard,Central Air,False,,False,False,detached-indicator,False,324.4997295835587,,False,True,True,True
384,3,4763086,"Condo Apartment, Apartment ",Condo Apartment,Condominium,550.0,1,0,1,0,0,0.0,202000.0,2024-12-24,Unit 208 - 105 ASA Street ,North Grenville ,Ontario,K0G 1J0,45.0166,-75.6434,1888.8,,None,,Apartment ,Baseboard ,None,False,,True,False,condo-indicator,False,367.27272727272725,,False,False,False,False
386,3,4763086,Detached,Detached,Detached,1250.0,3,0,3,1,0,1.0,425000.0,2024-12-31,935 County 44 Rd,North Grenville,Ontario,Unknown,45.0214,-75.653,15000.0,,Part Fin,,One,Forced Air,Central Air,False,,False,False,detached-indicator,False,340.0,,False,True,True,True
388,3,4763086,"Condo Apartment, 2-Storey ",Condo Apartment,Condominium,1313.0,3,0,3,0,0,0.0,315000.0,2025-01-02,286 FIR Lane,North Grenville ,Ontario,K0G 1J0,45.007,-75.6427,1888.8,,"None, None ",,2-Storey ,Forced Air ,Central Air ,False,,True,False,condo-indicator,False,239.9086062452399,,False,True,True,False
389,3,4763086,Freehold Townhouse,Freehold Townhouse,Townhouse,1650.0,3,0,3,1,1,1.5,560000.0,2025-01-03,18 ALMA St,Kemptville,Ontario,K0M 1A0,45.0171,-75.6501,2100.0,2006.0,"Finished, Full",,2,Forced Air,Central Air,False,,False,False,townhouse-indicator,False,339.3939393939394,19.0,True,True,True,True
392,3,4763086,Freehold Townhouse,Freehold Townhouse,Townhouse,1883.0,3,0,3,3,1,3.5,524990.0,2025-01-10,619 KEATONS Way,North Grenville,Ontario,K0G 1J0,45.0173,-75.6668,2784.0,,"Finished, Full",,Two,Forced Air,None,False,,False,False,townhouse-indicator,False,278.8050982474774,,False,True,False,True
394,3,4763086,Detached,Detached,Detached,2198.0,2,0,2,2,0,2.0,627000.0,2025-01-17,95 MAPLEWOOD Ave,North Grenville,Ontario,M6C 1J4,44.9638,-75.6786,31753.0,,Unfinished,,2-Storey,Other,Window Unit,False,,False,False,detached-indicator,False,285.25932666060055,,False,True,True,True
398,3,4763086,Detached,Detached,Detached,1626.0,4,0,4,3,0,3.0,815000.0,2025-01-22,342 PINEHILL Rd,Kemptville,Ontario,L2R 3R6,45.0133,-75.6536,6223.0,,"Finished, Full",,One,Forced Air,Central Air,False,,False,False,detached-indicator,False,501.230012300123,,False,True,True,True
403,3,4763086,"Detached, Sidesplit 3 ",Detached,Detached,2250.0,4,0,4,0,0,0.0,810000.0,2025-01-24,609 COUNTY 44 Road ,North Grenville ,Ontario,Unknown,45.0214,-75.653,56323.0,,"Full, Partially Finished ",,Sidesplit 3 ,Forced Air ,Central Air ,False,,True,False,detached-indicator,False,360.0,,False,True,True,True
406,3,4763086,Detached,Detached,Detached,2690.0,4,0,4,4,0,4.0,739990.0,2025-01-28,153 Robert Perry St,Kemptville,Ontario,K0G 1J0,45.0186,-75.663,3800.0,,"Finished, Full",,Two,Forced Air,None,False,,False,False,detached-indicator,False,275.08921933085503,,False,True,False,True
409,3,4763086,Bungalow,Detached,Detached,1522.0,2,0,2,3,0,3.0,747000.0,2025-01-31,339 Pinehill Rd,Kemptville,Ontario,K0G 1J0,45.0139,-75.6535,8800.0,2019.0,"Finished, Full",,,Forced Air,Central Air,False,,False,False,detached-indicator,False,490.80157687253615,6.0,True,True,True,True
410,3,4763086,Freehold Townhouse,Freehold Townhouse,Townhouse,1750.0,3,0,3,3,0,3.0,524990.0,2025-02-16,1006 Depencier Dr ,North Grenville ,Ontario,K0G 1J0,45.0219,-75.6595,2106.0,,"Finished, Full ",,2-Storey ,Forced Air ,None,False,,False,False,townhouse-indicator,False,299.9942857142857,,False,True,False,True
413,3,4763086,Detached,Detached,Detached,3287.0,5,0,5,4,0,4.0,920000.0,2025-02-17,56 Stonewalk Dr ,North Grenville ,Ontario,K0G 1J0,44.9844,-75.6926,74925.0,,"Finished, Full ",,2-Storey ,Forced Air ,Central Air ,False,,False,False,detached-indicator,False,279.89047763918467,,False,True,True,True
416,3,4763086,Detached,Detached,Detached,2011.0,3,0,3,2,0,2.0,812000.0,2025-02-20,48 Stonewalk Dr ,North Grenville ,Ontario,K0G 1J0,44.9862,-75.6944,4983.5,,"Full, Part Fin ",,Bungalow ,Forced Air ,Central Air ,False,,False,False,detached-indicator,False,403.7792143212332,,False,True,True,False
418,3,4763086,Detached,Detached,Detached,3292.0,4,0,4,5,0,5.0,849990.0,2025-02-21,1060 DEPENCIER Dr ,North Grenville ,Ontario,K0G 1J0,45.0219,-75.6595,5500.0,,"Finished, Full ",,2-Storey ,Forced Air ,Central Air ,False,,False,False,detached-indicator,False,258.19866342648845,,False,True,True,True
420,3,4763086,Detached,Detached,Detached,2631.0,3,0,3,2,0,2.0,800000.0,2025-02-23,2205 BEDELL Rd ,North Grenville ,Ontario,K0G 1J0,44.9848,-75.6598,91124.0,,"Crawl Space, Full ",,2-Storey ,Water ,Central Air ,False,,False,False,detached-indicator,False,304.0668947168377,,False,True,True,True
422,3,4763086,"Detached, 2-Storey ",Detached,Detached,1989.0,5,0,5,0,0,0.0,500000.0,2025-02-24,1910 River Road ,North Grenville ,Ontario,K0G 1J0,45.0179,-75.7164,44000.0,,"Full, Finished ",,2-Storey ,Baseboard ,None,False,,True,False,detached-indicator,False,251.38260432378078,,False,True,False,True
424,3,4763086,"Detached, 2-Storey ",Detached,Detached,1590.0,3,0,3,0,0,0.0,645000.0,2025-02-28,106 Alma Street W ,North Grenville ,Ontario,K0G 1J0,45.0163,-75.6512,4998.0,,Unfinished ,,2-Storey ,Forced Air ,Central Air ,False,,True,False,detached-indicator,False,405.66037735849056,,False,True,True,True
425,3,4763086,"Detached, 2-Storey ",Detached,Detached,2319.0,4,0,4,0,0,0.0,809982.0,2025-03-03,4035 DONNELLY Drive ,Rideau ,Ontario,K0G 1J0,44.9987,-75.768,1277010.0,,Unfinished ,,2-Storey ,Forced Air ,Central Air ,False,,True,False,detached-indicator,False,349.28072445019404,,False,True,True,True
426,3,4763086,Detached,Detached,Detached,1300.0,3,0,3,1,0,1.0,450000.0,2025-03-06,326 Jack St ,North Grenville ,Ontario,K0G 1J0,45.0167,-75.638,7198.0,75.0,Unfinished ,,1 1/2 Storey ,Forced Air ,Central Air ,False,,False,False,detached-indicator,False,346.15384615384613,1950.0,True,True,True,True
432,3,4763086,"Detached, Bungalow ",Detached,Detached,1300.0,2,0,2,0,0,0.0,580000.0,2025-03-11,503 George Street E ,North Grenville ,Ontario,K0G 1J0,45.0227,-75.646,5751.12,,"Full, Unfinished ",,Bungalow ,Forced Air ,Central Air ,False,,True,False,detached-indicator,False,446.15384615384613,,False,True,True,True
433,3,4763086,"Detached, Bungalow ",Detached,Detached,1177.0,2,0,2,0,0,0.0,445000.0,2025-03-12,1165 Craig Road ,North Grenville ,Ontario,K0G 1S0,44.9538,-75.7146,46420.0,,"Full, Unfinished ",,Bungalow ,Forced Air ,None,False,,True,False,detached-indicator,False,378.0798640611725,,False,True,False,True
435,3,4763086,"Detached, 2-Storey ",Detached,Detached,2779.0,4,0,4,0,0,0.0,719990.0,2025-03-13,221 Douglas Hardie Street ,North Grenville ,Ontario,K0G 1J0,45.0183,-75.6644,3535.0,,Partially Finished ,,2-Storey ,Forced Air ,None,False,,True,False,detached-indicator,False,259.0824037423534,,False,True,False,True
436,3,4763086,"Freehold Townhouse, 2-Storey ",Standard,Townhouse,1750.0,3,0,3,0,0,0.0,529990.0,2025-03-17,493 Patrick Street ,North Grenville ,Ontario,K0G 1J0,45.0177,-75.6681,2014.0,,"Full, Finished ",,2-Storey ,Forced Air ,None,False,,True,False,townhouse-indicator,False,302.8514285714286,,False,True,False,False
438,3,4763086,"Detached, 3-Storey ",Detached,Detached,2250.0,5,0,5,0,0,0.0,840000.0,2025-03-21,231 Asa Street ,North Grenville ,Ontario,K0G 1J0,45.0184,-75.6417,18834.0,,Unfinished ,,3-Storey ,Forced Air ,Central Air ,False,,True,False,detached-indicator,False,373.3333333333333,,False,True,True,True
441,3,4763086,"Detached, Bungalow ",Detached,Detached,1300.0,4,0,4,0,0,0.0,640000.0,2025-03-26,201 Ferguson Street ,North Grenville ,Ontario,K0G 1J0,45.0123,-75.6375,4983.5,,"Full, Partially Finished ",,Bungalow ,Forced Air ,Central Air ,False,,True,False,detached-indicator,False,492.3076923076923,,False,True,True,False
442,3,4763086,"Detached, 2-Storey ",Detached,Detached,2750.0,4,0,4,0,0,0.0,765000.0,2025-03-26,1203 Depencier Drive ,North Grenville ,Ontario,K0G 1J0,45.0224,-75.6598,3800.0,,Finished ,,2-Storey ,Forced Air ,Central Air ,False,,True,False,detached-indicator,False,278.1818181818182,,False,True,True,True
443,3,4763086,"Detached, Sidesplit 3 ",Detached,Detached,900.0,3,0,3,0,0,0.0,632000.0,2025-03-28,1212 /1222 County 18 Road ,North Grenville ,Ontario,Unknown,45.0214,-75.653,4983.5,,Finished ,,Sidesplit 3 ,Baseboard ,None,False,,True,False,detached-indicator,False,702.2222222222222,,False,True,False,False
444,3,4763086,"Semi-Detached, 2-Storey ",Semi-Detached,Semi-Detached,1300.0,3,0,3,0,0,0.0,509500.0,2025-04-04,203 Oxford Street E ,North Grenville ,Ontario,K0G 1J0,45.0191,-75.6467,3035.0,,"Full, Partially Finished ",,2-Storey ,Forced Air ,Central Air ,False,,True,False,semi-detached-indicator,False,391.9230769230769,,False,True,True,False
445,3,4763086,"Detached, 1 1/2 Storey ",Detached,Detached,900.0,3,0,3,0,0,0.0,450000.0,2025-04-04,9 George Street W ,North Grenville ,Ontario,K0G 1J0,45.0181,-75.651,4983.5,,Unfinished ,,1 1/2 Storey ,Forced Air ,None,False,,True,False,detached-indicator,False,500.0,,False,True,False,False
446,3,4763086,"Detached, 2-Storey ",Detached,Detached,1300.0,3,0,3,0,0,0.0,599900.0,2025-04-07,11 George Street W ,North Grenville ,Ontario,K0G 1J0,45.0181,-75.6512,8712.0,,"Apartment, Finished ",,2-Storey ,Forced Air ,Central Air ,False,,True,False,detached-indicator,False,461.46153846153845,,False,True,True,True
447,3,4763086,"Detached, 2-Storey ",Detached,Detached,1750.0,2,0,2,0,0,0.0,572500.0,2025-04-11,307 Thomas Street ,North Grenville ,Ontario,K0G 1J0,45.0153,-75.6414,4983.5,,"Full, Unfinished ",,2-Storey ,Forced Air ,Central Air ,False,,True,False,detached-indicator,False,327.14285714285717,,False,True,True,False
448,3,4763086,"Detached, Bungalow ",Detached,Detached,1750.0,2,0,2,0,0,0.0,758000.0,2025-04-14,22 Horizon Crescent ,North Grenville ,Ontario,K0G 1J0,45.0405,-75.6801,4983.5,,Unfinished ,,Bungalow ,Forced Air ,Central Air ,False,,True,False,detached-indicator,False,433.14285714285717,,False,True,True,False
