property_id,subject_id,orderID,structure_type,property_sub_type,prop_type_clean,gla_sqft,bedrooms_main,bedrooms_additional,bedrooms_total,bathrooms_full,bathrooms_half,bathrooms_equivalent,close_price,close_date,address,city,state_province,postal_code,latitude,longitude,lot_size_sqft,year_built,basement_type,main_level_finished_area,levels,heating,cooling,has_missing_bed_data,bedroom_imputation_method,has_missing_bath_data,has_missing_prop_type,prop_type_mapping_method,has_missing_date_data
4,0,4762597,Detached,Detached,Detached,1500.0,3,0,3,3,0,3.0,674000.0,2025-01-13,463 Conservatory Dr,Kingston,Ontario,K7M 9C8,44.2325,-76.5901,3555.5,,Unfinished,,Two,Forced Air,Central Air,False,,False,False,detached-indicator,False
6,0,4762597,Freehold Townhouse,Freehold Townhouse,Townhouse,1500.0,3,0,3,4,0,4.0,585000.0,2025-01-14,311 Janette St,Kingston,Ontario,K7P 0K8,44.2622,-76.5904,2622.0,,Fin W/O,,Two,Forced Air,Central Air,False,,False,False,townhouse-indicator,False
8,0,4762597,Rural Resid,Rural Resid,Rural Property,,4,0,4,4,0,4.0,685000.0,2025-01-15,4056 Bath Rd,Kingston,Ontario,K7M 4Y4,44.2407,-76.6102,16672.0,,"Part Bsmt, Unfinished",,,Baseboard,,False,,False,False,rural-indicator,False
9,0,4762597,Detached,Detached,Detached,1300.0,3,0,3,2,0,2.0,495000.0,2025-01-15,786 HIGH GATE PARK Dr,Kingston,Ontario,K7M 5Z8,44.2489,-76.6045,6600.0,,Finished,,Two,Forced Air,,False,,False,False,detached-indicator,False
11,0,4762597,Detached,Detached,Detached,1250.0,5,0,5,2,0,2.0,567500.0,2025-01-17,784 Downing St,Kingston,Ontario,K7M 5N2,44.2492,-76.5968,7150.0,,Unfinished,,Two,Forced Air,Central Air,False,,False,False,detached-indicator,False
13,0,4762597,Detached,Detached,Detached,1880.0,4,0,4,3,0,3.0,681000.0,2025-01-21,593 Roosevelt Dr,Kingston,Ontario,K7M 8T7,44.2346,-76.5871,6936.0,,Finished,,One,Forced Air,Central Air,False,,False,False,detached-indicator,False
15,0,4762597,Detached,Detached,Detached,2000.0,4,0,4,3,1,3.5,807000.0,2025-01-23,657 Gwen Ave,Kingston,Ontario,K7P 0M2,44.2649,-76.5904,4038.0,,Fin W/O,,Two,Forced Air,Central Air,False,,False,False,detached-indicator,False
17,0,4762597,Freehold Townhouse,Freehold Townhouse,Townhouse,1550.0,3,0,3,3,0,3.0,572999.0,2025-01-24,1341 TREMONT Dr,Kingston,Ontario,K7P 0M5,44.2661,-76.5911,2099.98,,"Finished, Full",,Two,Forced Air,Central Air,False,,False,False,townhouse-indicator,False
21,0,4762597,Detached,Detached,Detached,900.0,2,0,2,2,0,2.0,542000.0,2025-01-25,1028 Bauder Cres,Kingston ,Ontario,K7P 1M6,44.2576,-76.5861,8250.0,40.0,Fin W/O ,,Bungalow-Raised ,Forced Air ,Central Air ,False,,False,False,detached-indicator,False
22,0,4762597,Detached,Detached,Detached,1750.0,3,0,3,4,0,4.0,740000.0,2025-01-25,1040 Earnhart St,Kingston,Ontario,K7P 3B9,44.2587,-76.6071,5650.0,,Finished,,Two,Forced Air,Central Air,False,,False,False,detached-indicator,False
25,0,4762597,"Detached, 2-Storey ",Detached,Detached,1604.0,3,0,3,0,0,0.0,595000.0,2025-01-27,994 WESTMINSTER Place ,Kingston ,Ontario,K7P 1R1,44.2526,-76.5912,5635.0,,"Finished, Full ",,2-Storey ,Forced Air ,Central Air ,False,,True,False,detached-indicator,False
26,0,4762597,Detached,Detached,Detached,1850.0,3,0,3,4,0,4.0,745000.0,2025-01-28,2138 Balantrae Circ,Kingston,Ontario,K7M 9H8,44.2331,-76.5906,3845.06,,"Finished, Full",,Two,Forced Air,Central Air,False,,False,False,detached-indicator,False
28,0,4762597,Semi-Detached,Semi-Detached,Semi-Detached,1252.0,3,0,3,1,1,1.5,465000.0,2025-01-29,692 Truedell Rd,Kingston,Ontario,K7M 6T2,44.2462,-76.5788,3775.5,,"Full, Part Fin",,Two,Forced Air,Central Air,False,,False,False,semi-detached-indicator,False
30,0,4762597,Detached,Detached,Detached,1300.0,3,0,3,2,0,2.0,595000.0,2025-01-30,728 Sussex Blvd,Kingston,Ontario,K7M 5B1,44.2467,-76.5959,7800.0,,"Part Bsmt, W/O",,3.0,Forced Air,Central Air,False,,False,False,detached-indicator,False
32,0,4762597,"Condo Townhouse, 2-Storey ",Condo Townhouse,Condominium,1100.0,3,0,3,0,0,0.0,375000.0,2025-01-31,Unit 51 - 808 Datzell Lane,Kingston ,Ontario,K7M 7R6,44.25,-76.5903,,,Unfinished ,,2-Storey ,Forced Air ,Central Air ,False,,True,False,condo-indicator,False
33,0,4762597,Detached,Detached,Detached,2700.0,3,0,3,3,0,3.0,935000.0,2025-01-31,1126 Dunham St,Kingston,Ontario,K7P 2L4,44.2547,-76.5988,7050.0,,Fin W/O,,Two,Forced Air,Central Air,False,,False,False,detached-indicator,False
38,0,4762597,Detached,Detached,Detached,1500.0,2,0,2,2,0,2.0,580000.0,2025-02-04,661 Roosevelt Dr,Kingston,Ontario,K7M 8T8,44.2326,-76.5884,6000.0,,"Full, Unfinished",,One,Forced Air,Central Air,False,,False,False,detached-indicator,False
39,0,4762597,Semi-Detached,Semi-Detached,Semi-Detached,1501.0,3,0,3,2,0,2.0,550000.0,2025-02-04,657 Barnsley Cres,Kingston,Ontario,K7M 8X4,44.2319,-76.5967,4867.56,,Fin W/O,,Two,Forced Air,Central Air,False,,False,False,semi-detached-indicator,False
40,0,4762597,Detached,Detached,Detached,1616.0,3,0,3,2,1,2.5,762000.0,2025-02-04,418 Conservatory Dr,Kingston,Ontario,K7M 9C7,44.2319,-76.5915,3650.0,,"Finished, Full",,Two,Forced Air,Central Air,False,,False,False,detached-indicator,False
44,0,4762597,Detached,Detached,Detached,1500.0,4,0,4,3,1,3.5,615000.0,2025-02-05,1001 Lombardy St,Kingston,Ontario,K7M 8M7,44.2394,-76.5895,6299.39,,Finished,,Two,Forced Air,Central Air,False,,False,False,detached-indicator,False
45,0,4762597,Detached,Detached,Detached,1300.0,3,0,3,2,0,2.0,595000.0,2025-02-05,605 Truedell Rd ,Kingston ,Ontario,K7M 6S7,44.2422,-76.5804,5400.0,40.0,Finished ,,Backsplit 3 ,Forced Air ,Central Air ,False,,False,False,detached-indicator,False
46,0,4762597,Condo Apt,Condo Apt,Condominium,550.0,1,0,1,1,0,1.0,253750.0,2025-02-05,Unit 108 - 835 Milford Dr ,Kingston ,Ontario,K7P 1A7,44.2508,-76.5839,,75.0,Apartment ,,Apartment ,Baseboard ,Window Unit ,False,,False,False,condo-indicator,False
47,0,4762597,Condo Townhouse,Condo Townhouse,Condominium,1100.0,3,0,3,1,0,1.0,327000.0,2025-02-05,771 ASHWOOD Dr ,Kingston ,Ontario,K7M 6X7,44.2488,-76.5889,,40.0,Finished ,,2-Storey ,Forced Air ,Central Air ,False,,False,False,condo-indicator,False
52,0,4762597,Detached,Detached,Detached,1300.0,3,0,3,2,0,2.0,570000.0,2025-02-07,494 Roosevelt Dr ,Kingston ,Ontario,K7M 4B1,44.2343,-76.5812,6900.0,40.0,"Finished, Full ",,Bungalow-Raised ,Forced Air ,Central Air ,False,,False,False,detached-indicator,False
53,0,4762597,Detached,Detached,Detached,2470.0,4,0,4,4,0,4.0,875000.0,2025-02-07,393 Bernice Dr ,Kingston ,Ontario,K7M 5X2,44.2316,-76.5828,7500.0,40.0,"Finished, Full ",,2-Storey ,Forced Air ,Central Air ,False,,False,False,detached-indicator,False
54,0,4762597,Detached,Detached,Detached,2750.0,4,0,4,2,0,2.0,725000.0,2025-02-07,871 Crestwood Ave ,Kingston ,Ontario,K7P 1S7,44.2524,-76.6002,6500.0,40.0,"Unfinished, W/O ",,2-Storey ,Forced Air ,Central Air ,False,,False,False,detached-indicator,False
58,0,4762597,Semi-Detached,Semi-Detached,Semi-Detached,1156.0,3,0,3,2,0,2.0,455000.0,2025-02-13,760 Grouse Cres ,Kingston ,Ontario,K7P 1A2,44.2493,-76.5827,6987.0,40.0,Fin W/O ,,Bungalow ,Forced Air ,Central Air ,False,,False,False,semi-detached-indicator,False
59,0,4762597,Detached,Detached,Detached,1493.0,3,0,3,2,0,2.0,500000.0,2025-02-13,698 Fleet St ,Kingston ,Ontario,K7M 5A5,44.2454,-76.5947,6600.0,,"Sep Entrance, Walk-Up ",,Backsplit 3 ,Forced Air ,Central Air ,False,,False,False,detached-indicator,False
60,0,4762597,Condo Townhouse,Condo Townhouse,Condominium,1300.0,3,0,3,1,0,1.0,331000.0,2025-02-13,912 OAKVIEW St ,Kingston ,Ontario,K7M 6V6,44.2486,-76.5875,,,"Full, Unfinished ",,2-Storey ,Forced Air ,,False,,False,False,condo-indicator,False
66,0,4762597,Detached,Detached,Detached,1750.0,3,0,3,3,0,3.0,589000.0,2025-02-18,616 Pimlico Pl ,Kingston ,Ontario,K7M 5T8,44.241,-76.5864,9000.0,,"Finished, Full ",,Sidesplit 3 ,Forced Air ,Central Air ,False,,False,False,detached-indicator,False
68,0,4762597,Detached,Detached,Detached,1335.0,3,0,3,2,0,2.0,637000.0,2025-02-19,792 Safari Dr ,Kingston ,Ontario,K7M 6X9,44.2516,-76.612,6600.0,40.0,Finished ,,Sidesplit 3 ,Forced Air ,Central Air ,False,,False,False,detached-indicator,False
69,0,4762597,Detached,Detached,Detached,1300.0,3,0,3,2,0,2.0,505000.0,2025-02-20,667 Truedell Rd ,Kingston ,Ontario,K7M 6W6,44.2451,-76.5793,6500.0,40.0,Finished ,,2-Storey ,Forced Air ,,False,,False,False,detached-indicator,False
70,0,4762597,"Semi-Detached, Bungalow-Raised ",Semi-Detached,Semi-Detached,1750.0,4,0,4,0,0,0.0,550000.0,2025-02-24,995 Waterbury Crescent ,Kingston ,Ontario,K7M 8V5,44.2309,-76.59,3480.0,,"Finished, Full ",,Bungalow-Raised ,Forced Air ,Central Air ,False,,True,False,semi-detached-indicator,False
71,0,4762597,"Condo Apartment, Apartment ",Condo Apartment,Condominium,1100.0,2,0,2,0,0,0.0,394500.0,2025-02-24,Unit 305 - 675 Davis Drive W ,Kingston ,Ontario,K7M 8L5,44.2548,-76.5668,,,,,Apartment ,Baseboard ,Window Unit(s) ,False,,True,False,condo-indicator,False
72,0,4762597,"Condo Apartment, Bachelor/Studio ",Condo Apartment,Condominium,250.0,0,0,0,0,0,0.0,187000.0,2025-02-25,Unit 101 - 1010 Pembridge Crescent ,Kingston ,Ontario,K7P 1A3,44.2507,-76.5851,,,,,Bachelor/Studio ,Baseboard ,Wall Unit(s) ,False,,True,False,condo-indicator,False
74,0,4762597,Detached,Detached,Detached,2814.0,4,0,4,4,0,4.0,686500.0,2025-03-04,530 Canterbury Cres ,Kingston ,Ontario,K7M 6X1,44.2354,-76.5833,9200.0,,Finished ,,2-Storey ,Forced Air ,Central Air ,False,,False,False,detached-indicator,False
76,0,4762597,Detached,Detached,Detached,900.0,2,0,2,2,0,2.0,529000.0,2025-03-05,490 Kirkwood Rd ,Kingston ,Ontario,K7M 3X2,44.2353,-76.5729,7590.0,,"Finished, Full ",,Bungalow-Raised ,Forced Air ,Central Air ,False,,False,False,detached-indicator,False
77,0,4762597,Detached,Detached,Detached,1750.0,3,0,3,2,0,2.0,585000.0,2025-03-05,829 Larchwood Cres ,Kingston ,Ontario,K7P 2P8,44.2656,-76.5826,4888.0,40.0,Finished ,,Sidesplit 3 ,Forced Air ,Central Air ,False,,False,False,detached-indicator,False
80,0,4762597,"Condo Townhouse, 3-Storey ",Condo Townhouse,Condominium,1300.0,3,0,3,0,0,0.0,455000.0,2025-03-06,1097 Craig Lane ,Kingston ,Ontario,K7M 7W6,44.2501,-76.5923,,,Other ,,3-Storey ,Forced Air ,Central Air ,False,,True,False,condo-indicator,False
81,0,4762597,"Semi-Detached, 2-Storey ",Semi-Detached,Semi-Detached,1300.0,3,0,3,0,0,0.0,479900.0,2025-03-06,633 Davis Drive ,Kingston ,Ontario,K7M 7Y6,44.2534,-76.5673,3132.0,,Finished ,,2-Storey ,Forced Air ,Central Air ,False,,True,False,semi-detached-indicator,False
82,0,4762597,,Detached,Detached,1750.0,3,0,3,4,0,4.0,662000.0,2025-03-08,1512 Crimson Cres ,Kingston ,Ontario,K7P 0H4,44.2645,-76.5958,3286.0,10.0,"Finished, Full ",,2-Storey ,Forced Air ,Central Air ,False,,False,True,detached-indicator,False
84,0,4762597,"Semi-Detached, Backsplit 3 ",Semi-Detached,Semi-Detached,1273.0,4,0,4,0,0,0.0,475000.0,2025-03-11,842 Milford Drive ,Kingston ,Ontario,K7P 1A8,44.2519,-76.5833,4978.0,,"Full, Finished ",,Backsplit 3 ,Baseboard ,,False,,True,False,semi-detached-indicator,False
85,0,4762597,"Condo Townhouse, 2-Storey ",Condo Townhouse,Condominium,1300.0,3,0,3,0,0,0.0,425000.0,2025-03-12,880 Winchester Lane ,Kingston ,Ontario,K7P 2S6,44.258,-76.5784,,,Finished with Walk-Out ,,2-Storey ,Forced Air ,Central Air ,False,,True,False,condo-indicator,False
86,0,4762597,"Detached, 2-Storey ",Detached,Detached,2250.0,4,0,4,0,0,0.0,720000.0,2025-03-13,269 HOLDEN Street ,Kingston ,Ontario,K7P 0L1,44.2642,-76.5902,4240.0,,"Unfinished, Full ",,2-Storey ,Forced Air ,Central Air ,False,,True,False,detached-indicator,False
88,0,4762597,"Detached, Backsplit 3 ",,Detached,1300.0,3,0,3,0,0,0.0,470000.0,2025-03-15,1097 Pinewood Place ,Kingston ,Ontario,K7P 1L1,44.262,-76.582,,,Finished ,,Backsplit 3 ,Heat Pump ,,False,,True,False,detached-indicator,False
89,0,4762597,"Detached, Bungalow-Raised ",,Detached,1300.0,4,0,4,0,0,0.0,640000.0,2025-03-16,1105 Dunham Street ,Kingston ,Ontario,K7P 2K2,44.255,-76.6005,,,"Finished, Full ",,Bungalow-Raised ,Forced Air ,Central Air ,False,,True,False,detached-indicator,False
90,0,4762597,"Detached, Bungalow-Raised ",Detached,Detached,1750.0,4,0,4,0,0,0.0,710000.0,2025-03-17,355 Tanglewood Drive ,Kingston ,Ontario,K7M 8T8,44.2323,-76.5879,6120.0,,"Finished, Full ",,Bungalow-Raised ,Forced Air ,Central Air ,False,,True,False,detached-indicator,False
91,0,4762597,"Detached, Bungalow ",,Detached,,3,0,3,0,0,0.0,425750.0,2025-03-17,792 Clark Crescent ,Kingston ,Ontario,K7M 6J4,44.2488,-76.6121,,,"Full, Partially Finished ",,Bungalow ,Forced Air ,Central Air ,False,,True,False,detached-indicator,False
93,0,4762597,"Condo Apartment, 2-Storey ",Condo Apartment,Condominium,850.0,2,0,2,0,0,0.0,320000.0,2025-03-17,Unit 307 - 835 Milford Drive ,Kingston ,Ontario,K7P 1A7,44.2508,-76.5839,,,,,2-Storey ,Baseboard ,Window Unit(s) ,False,,True,False,condo-indicator,False
94,0,4762597,"Detached, Bungalow ",Detached,Detached,,4,0,4,0,0,0.0,495000.0,2025-03-20,1949 BATH Road ,Kingston ,Ontario,K7M 4Y3,44.2373,-76.5877,20000.0,,"Full, Partially Finished ",,Bungalow ,Forced Air ,,False,,True,False,detached-indicator,False
95,0,4762597,"Detached, Backsplit 4 ",Detached,Detached,,4,0,4,0,0,0.0,824000.0,2025-03-21,423 Carrie Crescent ,Kingston ,Ontario,K7M 5X7,44.233,-76.5821,7800.0,,"Finished with Walk-Out, Separate Entrance ",,Backsplit 4 ,Forced Air ,Central Air ,False,,True,False,detached-indicator,False
96,0,4762597,"Condo Townhouse, 2-Storey ",Condo Townhouse,Condominium,1100.0,3,0,3,0,0,0.0,400000.0,2025-03-21,1034 Craig Lane ,Kingston ,Ontario,K7M 7R8,44.249,-76.5911,,,Finished ,,2-Storey ,Forced Air ,,False,,True,False,condo-indicator,False
97,0,4762597,"Detached, Bungalow-Raised ",Detached,Detached,900.0,4,0,4,0,0,0.0,515000.0,2025-03-23,782 Cedarwood Drive ,Kingston ,Ontario,K7P 1M7,44.262,-76.5795,3850.0,,"Partially Finished, Walk-Up ",,Bungalow-Raised ,Forced Air ,Central Air ,False,,True,False,detached-indicator,False
98,0,4762597,"Detached, Sidesplit 3 ",Detached,Detached,,3,0,3,0,0,0.0,649900.0,2025-03-24,1070 Dillingham Street ,Kingston ,Ontario,K7P 2P4,44.2575,-76.608,4290.0,,"Crawl Space, Finished ",,Sidesplit 3 ,Forced Air ,Central Air ,False,,True,False,detached-indicator,False
99,0,4762597,"Detached, 2-Storey ",Detached,Detached,1900.0,5,0,5,0,0,0.0,760000.0,2025-03-25,913 Lancaster Drive ,Kingston ,Ontario,K7P 1R8,44.2562,-76.5913,5900.0,,"Finished, Full ",,2-Storey ,Forced Air ,Central Air ,False,,True,False,detached-indicator,False
100,0,4762597,"Detached, Bungalow ",Detached,Detached,1300.0,3,0,3,0,0,0.0,561767.0,2025-03-25,767 Downing Street ,Kingston ,Ontario,K7M 5N1,44.2484,-76.5978,9075.0,,Finished ,,Bungalow ,Forced Air ,Central Air ,False,,True,False,detached-indicator,False
102,0,4762597,"Detached, 2-Storey ",Detached,Detached,1750.0,4,0,4,0,0,0.0,720000.0,2025-03-27,481 Citation Crescent ,Kingston ,Ontario,K7M 8W2,44.2332,-76.5976,,,Finished ,,2-Storey ,Forced Air ,Central Air ,False,,True,False,detached-indicator,False
104,0,4762597,"Detached, Bungalow ",Detached,Detached,1500.0,5,0,5,0,0,0.0,775000.0,2025-03-29,1373 Fisher Crescent ,Kingston ,Ontario,K7M 8T2,44.2343,-76.5961,4305.0,,"Finished with Walk-Out, Walk-Out ",,Bungalow ,Forced Air ,Central Air ,False,,True,False,detached-indicator,False
107,0,4762597,"Detached, Backsplit 4 ",Detached,Detached,1300.0,4,0,4,0,0,0.0,580000.0,2025-04-02,825 Purcell Crescent ,Kingston ,Ontario,K7P 1B8,44.252,-76.5797,,,Apartment ,,Backsplit 4 ,Forced Air ,Central Air ,False,,True,False,detached-indicator,False
108,0,4762597,"Detached, 2-Storey ",Detached,Detached,1750.0,4,0,4,0,0,0.0,760000.0,2025-04-04,1239 Katharine Crescent ,Kingston ,Ontario,K7P 2T8,44.2591,-76.5996,,,Finished with Walk-Out ,,2-Storey ,Forced Air ,Central Air ,False,,True,False,detached-indicator,False
111,0,4762597,"Detached, 2-Storey ",Detached,Detached,1300.0,3,0,3,0,0,0.0,510000.0,2025-04-11,888 Clearfield Crescent ,Kingston ,Ontario,K7P 1Z5,44.2555,-76.5776,,,"Full, Finished ",,2-Storey ,Forced Air ,Central Air ,False,,True,False,detached-indicator,False
112,0,4762597,"Detached, 2-Storey ",Detached,Detached,2750.0,4,0,4,0,0,0.0,710000.0,2025-04-14,969 Mona Drive ,Kingston ,Ontario,K7P 2J5,44.2539,-76.6067,,,"Full, Unfinished ",,2-Storey ,Forced Air ,Central Air ,False,,True,False,detached-indicator,False
113,0,4762597,"Detached, Sidesplit ",Detached,Detached,1300.0,4,0,4,0,0,0.0,630000.0,2025-04-14,862 Kilburn Street ,Kingston ,Ontario,K7M 6A9,44.2433,-76.582,,,Partial Basement ,,Sidesplit ,Forced Air ,Central Air ,False,,True,False,detached-indicator,False
114,0,4762597,"Detached, 2-Storey ",Detached,Detached,2250.0,5,0,5,0,0,0.0,888500.0,2025-04-15,1220 Humberside Drive ,Kingston ,Ontario,K7P 2P3,44.2551,-76.6069,,,Full ,,2-Storey ,Forced Air ,Central Air ,False,,True,False,detached-indicator,False
115,0,4762597,"Detached, Bungalow-Raised ",Detached,Detached,1300.0,4,0,4,0,0,0.0,630000.0,2025-04-15,700 LAIDLAW Crescent ,Kingston ,Ontario,K7M 5M4,44.2474,-76.5894,,,"Separate Entrance, Finished ",,Bungalow-Raised ,Forced Air ,Central Air ,False,,True,False,detached-indicator,False
116,0,4762597,"Detached, Bungalow-Raised ",Detached,Detached,900.0,3,0,3,0,0,0.0,590000.0,2025-04-16,1246 Carmil Boulevard ,Kingston ,Ontario,K7M 5Z3,44.2499,-76.6093,,,Full ,,Bungalow-Raised ,Forced Air ,Central Air ,False,,True,False,detached-indicator,False
118,0,4762597,"Semi-Detached, 2-Storey ",Semi-Detached,Semi-Detached,1300.0,3,0,3,0,0,0.0,507900.0,2025-04-17,486 Evangeline Avenue ,Kingston ,Ontario,K7M 8T1,44.2331,-76.5939,,,Finished ,,2-Storey ,Forced Air ,Central Air ,False,,True,False,semi-detached-indicator,False
120,0,4762597,"Detached, 2-Storey ",Detached,Detached,1750.0,6,0,6,0,0,0.0,850000.0,2025-04-21,941 AMBLESIDE Crescent ,Kingston ,Ontario,K7P 2B5,44.2556,-76.5823,,,"Apartment, Walk-Out ",,2-Storey ,Forced Air ,Central Air ,False,,True,False,detached-indicator,False
122,0,4762597,"Semi-Detached, Bungalow ",Semi-Detached,Semi-Detached,1750.0,2,0,2,0,0,0.0,630000.0,2025-04-22,693 Millwood Drive ,Kingston ,Ontario,K7M 8Z1,44.2359,-76.5882,,,"Full, Unfinished ",,Bungalow ,Forced Air ,Central Air ,False,,True,False,semi-detached-indicator,False
123,0,4762597,"Detached, Sidesplit 4 ",Detached,Detached,2250.0,4,0,4,0,0,0.0,677500.0,2025-04-23,852 Development Drive ,Kingston ,Ontario,K7M 4W6,44.2409,-76.5808,,,"Finished, Walk-Up ",,Sidesplit 4 ,Forced Air ,Central Air ,False,,True,False,detached-indicator,False
124,0,4762597,"Detached, 2-Storey ",Detached,Detached,2250.0,4,0,4,0,0,0.0,895000.0,2025-04-24,1173 Bentley Terrace ,Kingston ,Ontario,K7P 2M1,44.2562,-76.6007,,,"Finished with Walk-Out, Full ",,2-Storey ,Forced Air ,Central Air ,False,,True,False,detached-indicator,False
126,0,4762597,"Detached, Bungalow-Raised ",Detached,Detached,,3,0,3,0,0,0.0,560000.0,2025-04-24,824 Slocan Place ,Kingston ,Ontario,K7P 1B4,44.2508,-76.5818,,,"Full, Partially Finished ",,Bungalow-Raised ,Forced Air ,Central Air ,False,,True,False,detached-indicator,False
127,0,4762597,"Detached, Bungalow ",Detached,Detached,1300.0,4,0,4,0,0,0.0,620000.0,2025-04-25,691 HIGH GATE PARK Drive ,Kingston ,Ontario,K7M 5Z7,44.245,-76.6036,,,Full ,,Bungalow ,Forced Air ,Central Air ,False,,True,False,detached-indicator,False
128,0,4762597,"Detached, Bungalow-Raised ",Detached,Detached,1750.0,3,0,3,0,0,0.0,625000.0,2025-04-27,994 Hudson Drive ,Kingston ,Ontario,K7M 6E1,44.2453,-76.5899,,,"Finished with Walk-Out, Partial Basement ",,Bungalow-Raised ,Forced Air ,Central Air ,False,,True,False,detached-indicator,False
129,0,4762597,"Detached, 2-Storey ",Detached,Detached,1300.0,3,0,3,0,0,0.0,525000.0,2025-04-28,725 Cedarwood Drive ,Kingston ,Ontario,K7P 1V4,44.2638,-76.5771,,,"Full, Finished ",,2-Storey ,Forced Air ,Central Air ,False,,True,False,detached-indicator,False
130,0,4762597,"Detached, Bungalow ",Detached,Detached,1300.0,4,0,4,0,0,0.0,760000.0,2025-04-28,1121 Lincoln Drive ,Kingston ,Ontario,K7M 4Z7,44.2427,-76.5996,,,Finished with Walk-Out ,,Bungalow ,Water ,,False,,True,False,detached-indicator,False
132,0,4762597,"Detached, 2-Storey ",Detached,Detached,1300.0,4,0,4,0,0,0.0,565000.0,2025-04-30,1125 Basswood Place ,Kingston ,Ontario,K7P 1K4,44.2641,-76.5813,,,"Full, Partially Finished ",,2-Storey ,Forced Air ,Central Air ,False,,True,False,detached-indicator,False
133,0,4762597,"Detached, 1 1/2 Storey ",Detached,Detached,1750.0,4,0,4,0,0,0.0,648000.0,2025-04-30,1149 Hudson Drive ,Kingston ,Ontario,K7M 5L5,44.2483,-76.6018,,,"Finished with Walk-Out, Separate Entrance ",,1 1/2 Storey ,Forced Air ,Central Air ,False,,True,False,detached-indicator,False
134,0,4762597,"Detached, Bungalow ",Detached,Detached,900.0,4,0,4,0,0,0.0,575000.0,2025-05-01,479 Kirkwood Road ,Kingston ,Ontario,K7M 3X3,44.2347,-76.5735,,,"Finished, Full ",,Bungalow ,Forced Air ,Central Air ,False,,True,False,detached-indicator,False
135,0,4762597,"Detached, 2-Storey ",Detached,Detached,1300.0,3,0,3,0,0,0.0,680000.0,2025-05-01,901 Lombardy Street ,Kingston ,Ontario,K7M 9C2,44.239,-76.5856,,,Finished ,,2-Storey ,Forced Air ,Central Air ,False,,True,False,detached-indicator,False
136,0,4762597,"Condo Apartment, Apartment ",Condo Apartment,Condominium,1300.0,3,0,3,0,0,0.0,440000.0,2025-05-02,Unit 510 - 675 Davis Drive ,Kingston ,Ontario,K7M 8L5,44.2548,-76.5668,,,,,Apartment ,Baseboard ,Wall Unit(s) ,False,,True,False,condo-indicator,False
137,0,4762597,"Detached, Other ",Detached,Detached,1300.0,3,0,3,0,0,0.0,597000.0,2025-05-02,900 DANBURY Road ,Kingston ,Ontario,K7M 6E4,44.2485,-76.5859,,,"Finished, Full ",,Other ,Forced Air ,Central Air ,False,,True,False,detached-indicator,False
138,0,4762597,"Duplex, Bungalow ",Duplex,Detached,1300.0,6,0,6,0,0,0.0,650000.0,2025-05-02,731 Downing Street ,Kingston ,Ontario,K7M 5N1,44.2466,-76.5974,,,"Unfinished, Full ",,Bungalow ,Forced Air ,Central Air ,False,,True,False,detached-style,False
139,0,4762597,"Semi-Detached, 2-Storey ",Semi-Detached,Semi-Detached,1300.0,3,0,3,0,0,0.0,440000.0,2025-05-05,998 Sprucewood Crescent ,Kingston ,Ontario,K7P 1N1,44.2605,-76.5795,,,"Full, Finished ",,2-Storey ,Forced Air ,,False,,True,False,semi-detached-indicator,False
140,0,4762597,"Detached, 2-Storey ",Detached,Detached,1300.0,3,0,3,0,0,0.0,605000.0,2025-05-05,528 Beth Crescent ,Kingston ,Ontario,K7P 0K9,44.2637,-76.5917,,,"Unfinished, Full ",,2-Storey ,Forced Air ,Central Air ,False,,True,False,detached-indicator,False
141,0,4762597,"Semi-Detached, 2-Storey ",Semi-Detached,Semi-Detached,900.0,3,0,3,0,0,0.0,490000.0,2025-05-06,1063 Basswood Place ,Kingston ,Ontario,K7P 1K4,44.2631,-76.5835,,,"Full, Finished ",,2-Storey ,Forced Air ,Central Air ,False,,True,False,semi-detached-indicator,False
143,0,4762597,"Detached, 2-Storey ",Detached,Detached,2250.0,4,0,4,0,0,0.0,895000.0,2025-05-06,371 Tanglewood Drive ,Kingston ,Ontario,K7M 8T9,44.2323,-76.5872,,,"Full, Finished ",,2-Storey ,Forced Air ,Central Air ,False,,True,False,detached-indicator,False
144,0,4762597,"Semi-Detached, 2-Storey ",Semi-Detached,Semi-Detached,1750.0,3,0,3,0,0,0.0,617207.0,2025-05-07,1203 Carfa Crescent ,Kingston ,Ontario,K7P 0N2,44.2643,-76.6002,,,Finished ,,2-Storey ,Forced Air ,Central Air ,False,,True,False,semi-detached-indicator,False
146,0,4762597,"Semi-Detached, 2-Storey ",Semi-Detached,Semi-Detached,1300.0,3,0,3,0,0,0.0,517900.0,2025-05-08,1038 Springfield Drive ,Kingston ,Ontario,K7M 8V6,44.2308,-76.5915,,,"Full, Finished ",,2-Storey ,Forced Air ,Central Air ,False,,True,False,semi-detached-indicator,False
147,0,4762597,"Detached, 2-Storey ",Detached,Detached,2250.0,4,0,4,0,0,0.0,679000.0,2025-05-08,958 Chancery Street ,Kingston ,Ontario,K7P 1R3,44.2551,-76.5904,,,"Finished, Full ",,2-Storey ,Forced Air ,Central Air ,False,,True,False,detached-indicator,False
148,0,4762597,"Detached, 2-Storey ",Detached,Detached,1750.0,4,0,4,0,0,0.0,750000.0,2025-05-09,1110 Dunham Street ,Kingston ,Ontario,K7P 2L4,44.2545,-76.5997,,,Finished ,,2-Storey ,Forced Air ,Central Air ,False,,True,False,detached-indicator,False
149,0,4762597,"Detached, Bungalow ",Detached,Detached,1300.0,2,0,2,0,0,0.0,530000.0,2025-05-11,685 Roosevelt Drive ,Kingston ,Ontario,K7M 8T8,44.231,-76.5882,,,Full ,,Bungalow ,Forced Air ,Central Air ,False,,True,False,detached-indicator,False
150,1,4762739,Single Family,Detached,Detached,1136.0,2,0,2,2,0,2.0,710000.0,2024-10-30,638 Myers Point Road,Nova Scotia,Nova Scotia,B0J 1P0,44.7765,-63.0424,65340.0,2010.0,"Full, Fully Developed, Walkout",,Bungalow,"Baseboard, Heat Pump, Fireplace, ETS (Elec Thermal Storage)","Baseboard, Heat Pump, Fireplace, ETS (Elec Thermal Storage)",False,,False,False,detached-indicator,False
151,1,4762739,Single Family,Detached,Detached,1026.0,3,0,3,1,1,1.5,450000.0,2024-11-01,281 West Jeddore Road,Nova Scotia,Nova Scotia,B0J 1P0,44.7683,-63.0714,43560.0,,"Undeveloped, Full, Walkout",,"Bungalow, 1 Level","Stove, Heat Pump, Ductless Cooling","Stove, Heat Pump, Ductless Cooling",False,,False,False,detached-indicator,False
152,1,4762739,Single Family,Detached,Detached,2117.0,3,0,3,1,1,1.5,930000.0,2024-11-01,46 Ostrea Lake Road,Nova Scotia,Nova Scotia,B0J 2L0,44.7809,-63.1032,99929.0,1967.0,Partially Developed,,"Bungalow, 2 Level","Baseboard, Heat Pump, Fireplace","Baseboard, Heat Pump, Fireplace",False,,False,False,detached-indicator,False
153,1,4762739,Single Family,Detached,Detached,816.0,2,0,2,1,1,1.5,430000.0,2024-11-08,15 Macdonald Lane,Nova Scotia,Nova Scotia,B0J 2L0,44.7889,-63.1428,89298.0,2021.0,,,Bungalow,Baseboard,Baseboard,False,,False,False,detached-indicator,False
154,1,4762739,Single Family,Detached,Detached,1350.0,3,0,3,1,0,1.0,395000.0,2024-11-28,8426 Highway 7,Nova Scotia,Nova Scotia,B0J 2L0,44.7903,-63.1199,30719.0,1918.0,"Undeveloped, Full, Walkout",,2 Level,Forced Air,Forced Air,False,,False,False,detached-indicator,False
155,1,4762739,Single Family,Detached,Detached,1320.0,3,0,3,2,0,2.0,378275.0,2024-12-06,569 West Jeddore Road,Nova Scotia,Nova Scotia,B0J 1P0,44.7584,-63.0603,92347.0,2013.0,"Undeveloped, Walkout",,Bungalow,"Baseboard, Heat Pump","Baseboard, Heat Pump",False,,False,False,detached-indicator,False
156,1,4762739,Single Family,Detached,Detached,1092.0,3,0,3,2,0,2.0,415000.0,2024-12-09,9051 Highway 7,Nova Scotia,Nova Scotia,B0J 1P0,44.7788,-63.0876,29832.0,1995.0,"Full, Partially Developed, Walkout",,Split Entry,"Baseboard, Furnace, Forced Air","Baseboard, Furnace, Forced Air",False,,False,False,detached-indicator,False
157,1,4762739,Single Family,Detached,Detached,1100.0,3,0,3,2,0,2.0,420000.0,2024-12-13,6547 Highway 7,Nova Scotia,Nova Scotia,B0H 1N0,44.7648,-63.2169,21446.0,1945.0,Crawl Space,,2 Level,"Furnace, Forced Air","Furnace, Forced Air",False,,False,False,detached-indicator,False
158,1,4762739,Single Family,Detached,Detached,1078.0,2,0,2,1,0,1.0,325000.0,2024-12-27,8179 7 Highway,Nova Scotia,Nova Scotia,B0J 2L0,44.7922,-63.1337,32400.0,,,,1.5 Level,"Baseboard, Heat Pump","Baseboard, Heat Pump",False,,False,False,detached-indicator,False
159,1,4762739,Detached,Detached,Detached,616.0,2,0,2,1,0,1.0,135000.0,2025-01-10,"205 East Petpeswick Road, Musquodoboit Harbour",Nova Scotia,Nova Scotia,B0J 2L0,44.7784,-63.1482,34000.0,1934.0,,,Detached,Furnace,Furnace,False,,False,False,detached-indicator,False
160,1,4762739,Single Family,Detached,Detached,1182.0,3,0,3,2,0,2.0,500000.0,2025-02-06,2 Willowdale Drive,Nova Scotia,Nova Scotia,B0J 2L0,44.7832,-63.1657,32393.0,1998.0,"Crawl Space, Fully Developed",,"Side Split, 3 Level","Forced Air, Fireplace, In Floor","Forced Air, Fireplace, In Floor",False,,False,False,detached-indicator,False
161,1,4762739,Single Family,Detached,Detached,900.0,3,0,3,2,0,2.0,500000.0,2025-03-21,6820 Highway 7,Nova Scotia,Nova Scotia,B0H 1N0,44.7747,-63.2075,17238.0,1980.0,"Full, Fully Developed, Walkout",,Bungalow,"Stove, Heat Pump","Stove, Heat Pump",False,,False,False,detached-indicator,False
162,1,4762739,Single Family,Detached,Detached,320.0,1,0,1,1,0,1.0,108000.0,2025-04-02,425 Highway 357,Nova Scotia,Nova Scotia,B0J 1N0,44.8016,-63.1651,74381.0,1875.0,,,1.5 Level,Forced Air,Forced Air,False,,False,False,detached-indicator,False
163,1,4762739,Single Family,Detached,Detached,1130.0,2,0,2,1,2,2.0,285000.0,2025-04-04,9559 Highway 7,Nova Scotia,Nova Scotia,B0J 1P0,44.7778,-63.0583,35810.0,1950.0,"Partially Developed, Walkout",,1.5 Level,"Baseboard, Forced Air","Baseboard, Forced Air",False,,False,False,detached-indicator,False
164,1,4762739,Single Family,Detached,Detached,1185.0,2,0,2,2,0,2.0,420000.0,2025-04-08,Lot 1 Highway 357,Nova Scotia,Nova Scotia,B0J 2L0,44.7873,-63.1481,43560.0,,,,Bungalow,"Baseboard, Heat Pump","Baseboard, Heat Pump",False,,False,False,detached-indicator,False
165,1,4762739,Single Family,Detached,Detached,440.0,2,0,2,1,0,1.0,263500.0,2025-04-14,8210 Highway 7,Nova Scotia,Nova Scotia,B0J 2L0,44.7919,-63.1318,43560.0,,"Undeveloped, Crawl Space",,1.5 Level,,,False,,False,False,detached-indicator,False
166,1,4762739,Single Family,Detached,Detached,3675.0,5,0,5,4,0,4.0,999999.0,2025-04-24,215 Scotsdale Drive,Nova Scotia,Nova Scotia,B0J 1N0,44.787,-63.1852,110868.0,2004.0,"Full, Fully Developed",,2 Level,Baseboard,Baseboard,False,,False,False,detached-indicator,False
167,1,4762739,Single Family,Detached,Detached,1472.0,3,0,3,2,0,2.0,545000.0,2025-05-02,Unit 7  East Petpeswick Road,Nova Scotia,Nova Scotia,B0J 2L0,44.7865,-63.1475,126952.0,,,,Bungalow,"Baseboard, Heat Pump","Baseboard, Heat Pump",False,,False,False,detached-indicator,False
168,1,4762739,Duplex,Over-Under,Detached,1152.0,4,0,4,2,0,2.0,,2025-05-13,8683 Highway 7,Nova Scotia,Nova Scotia,B0J 2L0,44.7882,-63.1068,52272.0,1991.0,"Full, Fully Developed, Walkout",,Bungalow,Baseboard,Baseboard,False,,False,True,gla-fallback,False
169,2,4763065,"Row/Townhouse, Two Story ",Row/Townhouse,Townhouse,1444.0,3,0,3,2,1,2.5,717000.0,2024-12-02,246 Waterbrook Lane ,Kitchener ,Ontario,N2P 2X5,43.3736,-80.4322,1848.0,,Unfinished ,,Two Story ,"Forced Air,  Natural Gas ",Central Air ,False,,False,False,townhouse-indicator,False
170,2,4763065,"Row/Townhouse, Two Story ",Row/Townhouse,Townhouse,1100.0,3,0,3,1,1,1.5,695000.0,2024-12-02,115 Templewood Drive ,Kitchener ,Ontario,N2R 1Y4,43.3919,-80.4622,3348.0,,Finished ,,Two Story ,"Forced Air,  Natural Gas ",Central Air ,False,,False,False,townhouse-indicator,False
171,2,4763065,"Single Family Residence, Two Story ",Single Family Residence,Detached,2377.0,4,0,4,3,1,3.5,952200.0,2024-12-02,237 Shady Glen Crescent ,Kitchener ,Ontario,N2R 0J9,43.3871,-80.4994,3900.0,2017.0,"Finished, Walk-Up Access ",,Two Story ,Forced Air ,,False,,False,False,detached-indicator,False
172,2,4763065,"Detached, 2-Storey ",Detached,Detached,1750.0,3,0,3,0,0,0.0,943000.0,2024-12-02,540 Doonwoods Crescent ,Kitchener ,Ontario,N2P 2N1,43.371,-80.435,3600.0,,Unfinished ,,2-Storey ,Forced Air ,Central Air ,False,,True,False,detached-indicator,False
173,2,4763065,"Single Family Residence, Two Story ",Single Family Residence,Detached,2093.0,5,0,5,3,1,3.5,1003000.0,2024-12-03,619 Rush Meadow Crescent ,Kitchener ,Ontario,N2R 1S9,43.3887,-80.4627,,,Finished ,,Two Story ,"Forced Air,  Natural Gas ",Central Air ,False,,False,False,detached-indicator,False
174,2,4763065,"Single Family Residence, Two Story ",Single Family Residence,Detached,2801.0,4,0,4,3,1,3.5,1150100.0,2024-12-03,299 Moorlands Crescent ,Kitchener ,Ontario,N2P 2N3,43.3745,-80.444,4000.0,2015.0,Finished ,,Two Story ,Natural Gas ,Central Air ,False,,False,False,detached-indicator,False
175,2,4763065,"Condo Townhouse, 3-Storey ",Condo Townhouse,Condominium,1500.0,2,0,2,0,0,0.0,553000.0,2024-12-04,229 West oak Tr ,Kitchener ,Ontario,N2R 0R9,43.3836,-80.4917,,,None ,,3-Storey ,Forced Air ,Central Air ,False,,True,False,condo-indicator,False
176,2,4763065,"Freehold Townhouse, 2-Storey ",Freehold Townhouse,Townhouse,1750.0,3,0,3,0,0,0.0,750000.0,2024-12-04,98 Pony Way ,Kitchener ,Ontario,N2R 0R8,43.3842,-80.4751,2380.0,,Full ,,2-Storey ,Forced Air ,Central Air ,False,,True,False,townhouse-indicator,False
177,2,4763065,"Single Family Residence, Two Story ",Single Family Residence,Detached,1440.0,3,0,3,2,1,2.5,797400.0,2024-12-04,Unit Lot 0004 - 15 Pine Warbler Street ,Kitchener ,Ontario,N2P,43.3668,-80.4445,3000.0,,"Unfinished, Walk-Out Access ",,Two Story ,"Forced Air,  Natural Gas ",,False,,False,False,detached-indicator,False
178,2,4763065,"Row/Townhouse, Two Story ",Row/Townhouse,Townhouse,1807.0,3,0,3,2,1,2.5,788000.0,2024-12-04,913 Robert Ferrie Drive ,Kitchener ,Ontario,N2R 1P2,43.3784,-80.45,1908.0,,"Unfinished, Unfinished ",,Two Story ,"Forced Air,  Natural Gas ",Central Air ,False,,False,False,townhouse-indicator,False
179,2,4763065,"Freehold Townhouse, 2-Storey ",Freehold Townhouse,Townhouse,1750.0,3,0,3,0,0,0.0,771000.0,2024-12-04,230 Greenwater Place ,Kitchener ,Ontario,N2R 0G9,43.3771,-80.4454,3248.0,,Finished ,,2-Storey ,Forced Air ,Central Air ,False,,True,False,townhouse-indicator,False
180,2,4763065,"Row/Townhouse, Two Story ",Row/Townhouse,Townhouse,1479.0,3,0,3,2,0,2.0,715000.0,2024-12-05,34 Renfrew Street ,Kitchener ,Ontario,N2R 0G5,43.3839,-80.4715,1998.0,2014.0,Unfinished ,,Two Story ,"Forced Air,  Natural Gas ",Central Air ,False,,False,False,townhouse-indicator,False
181,2,4763065,"Single Family Residence, Two Story ",Single Family Residence,Detached,2103.0,5,0,5,2,1,2.5,935000.0,2024-12-05,27 Rush Meadow Street ,Kitchener ,Ontario,N2R 1S9,43.3897,-80.4629,9432.0,2004.0,Finished ,,Two Story ,"Forced Air,  Natural Gas ",Central Air ,False,,False,False,detached-indicator,False
182,2,4763065,"Detached, 2-Storey ",Detached,Detached,2250.0,4,0,4,0,0,0.0,915000.0,2024-12-09,2 Castlebay Street ,Kitchener ,Ontario,N2R 0G5,43.3837,-80.4712,5400.0,,Unfinished ,,2-Storey ,Forced Air ,Central Air ,False,,True,False,detached-indicator,False
183,2,4763065,"Row/Townhouse, Two Story ",Row/Townhouse,Townhouse,1352.0,3,0,3,2,1,2.5,655000.0,2024-12-10,122 Rochefort Street ,Kitchener ,Ontario,N2R 1V5,43.3844,-80.4788,2912.0,2012.0,Unfinished ,,Two Story ,"Forced Air,  Natural Gas ",Central Air ,False,,False,False,townhouse-indicator,False
184,2,4763065,"Single Family Residence, 3 Storey ",Single Family Residence,Detached,2170.0,3,0,3,3,1,3.5,930000.0,2024-12-10,23 Pondcliffe Drive ,Kitchener ,Ontario,N2R 0M1,43.3819,-80.4417,3120.0,,Unfinished ,,3 Storey ,"Forced Air,  Natural Gas ",Central Air ,False,,False,False,detached-indicator,False
185,2,4763065,"Row/Townhouse, Stacked Townhouse ",Row/Townhouse,Townhouse,628.0,1,0,1,1,0,1.0,370000.0,2024-12-12,Unit 5D - 255 Maitland Street ,Kitchener ,Ontario,N2R 1Z2,43.3879,-80.4774,,2013.0,,,Stacked Townhouse ,"Forced Air,  Natural Gas ",Central Air ,False,,False,False,townhouse-indicator,False
186,2,4763065,"Single Family Residence, Backsplit ",Single Family Residence,Detached,2001.0,5,0,5,3,0,3.0,840000.0,2024-12-16,137 Winding Wood Crescent ,Kitchener ,Ontario,N2P 2L7,43.3825,-80.4249,5117.0,,Finished ,,Backsplit ,Natural Gas ,Central Air ,False,,False,False,detached-indicator,False
187,2,4763065,"Row/Townhouse, Two Story ",Row/Townhouse,Townhouse,1831.0,3,0,3,2,1,2.5,775000.0,2024-12-17,120 Watermill Street ,Kitchener ,Ontario,N2P 0H3,43.373,-80.4302,2964.0,2018.0,"Unfinished, Walk-Out Access ",,Two Story ,"Forced Air,  Natural Gas ",Central Air ,False,,False,False,townhouse-indicator,False
188,2,4763065,"Row/Townhouse, Two Story ",Row/Townhouse,Townhouse,1606.0,3,0,3,3,1,3.5,788000.0,2024-12-18,24 Roywood Street ,Kitchener ,Ontario,N2R 0S5,43.3773,-80.4827,1995.0,2023.0,Finished ,,Two Story ,"Forced Air,  Natural Gas ",Central Air ,False,,False,False,townhouse-indicator,False
189,2,4763065,"Row/Townhouse, Two Story ",Row/Townhouse,Townhouse,1274.0,3,0,3,1,1,1.5,700000.0,2024-12-19,17 Stratus Street ,Kitchener ,Ontario,N2R 0K5,43.3819,-80.4959,1886.0,2016.0,Unfinished ,,Two Story ,"Forced Air,  Natural Gas ",Central Air ,False,,False,False,townhouse-indicator,False
190,2,4763065,"Row/Townhouse, Two Story ",Row/Townhouse,Townhouse,925.0,2,0,2,1,1,1.5,470000.0,2024-12-20,Unit E - 236 Rachel Crescent ,Kitchener ,Ontario,N2R 0E1,43.3838,-80.4879,,2013.0,Unfinished ,,Two Story ,"Forced Air,  Natural Gas ",Central Air ,False,,False,False,townhouse-indicator,False
191,2,4763065,"Row/Townhouse, 3 Storey ",Row/Townhouse,Townhouse,1355.0,2,0,2,2,1,2.5,600000.0,2024-12-20,Unit 41 - 111 South Creek Drive ,Kitchener ,Ontario,N2P 2N3,43.3746,-80.441,,,"Unfinished, Walk-Up Access ",,3 Storey ,"Forced Air,  Natural Gas ",Central Air ,False,,False,False,townhouse-indicator,False
192,2,4763065,"Row/Townhouse, Two Story ",Row/Townhouse,Townhouse,1278.0,3,0,3,2,1,2.5,670500.0,2024-12-20,169 South Creek Drive ,Kitchener ,Ontario,N2P 2N3,43.373,-80.4405,,2018.0,Finished ,,Two Story ,"Forced Air,  Natural Gas ",Central Air ,False,,False,False,townhouse-indicator,False
194,2,4763065,"Single Family Residence, Two Story ",Single Family Residence,Detached,2450.0,5,0,5,3,1,3.5,1085000.0,2024-12-20,905 Woodbine Court ,Kitchener ,Ontario,N2R 1X4,43.3867,-80.4841,5550.0,2006.0,"Finished, Walk-Up Access ",,Two Story ,"Fireplace-Gas,  Forced Air,  Natural Gas ",Central Air ,False,,False,False,detached-indicator,False
195,2,4763065,"Single Family Residence, Two Story ",Single Family Residence,Detached,3247.0,6,0,6,4,1,4.5,1180000.0,2024-12-20,182 Doon Mills Drive ,Kitchener ,Ontario,N2P 2S1,43.387,-80.4325,6486.0,2003.0,"Finished, Full ",,Two Story ,"Forced Air,  Natural Gas ",Central Air ,False,,False,False,detached-indicator,False
196,2,4763065,"Row/Townhouse, 3 Storey ",Row/Townhouse,Townhouse,1840.0,3,0,3,2,1,2.5,800000.0,2024-12-22,140 Ian Ormston Drive ,Kitchener ,Ontario,N2P 2N7,43.3774,-80.4197,2496.0,2021.0,"Finished, Walk-Out Access ",,3 Storey ,"Forced Air,  Natural Gas ",Central Air ,False,,False,False,townhouse-indicator,False
197,2,4763065,"Row/Townhouse, 3 Storey ",Row/Townhouse,Townhouse,1684.0,4,0,4,2,1,2.5,750000.0,2024-12-22,37 Sportsman Hill Street ,Kitchener ,Ontario,N2P 0J4,43.3767,-80.4186,2052.0,,None ,,3 Storey ,"Forced Air,  Natural Gas ",Central Air ,False,,False,False,townhouse-indicator,False
198,2,4763065,"Detached, 2-Storey ",Detached,Detached,2750.0,4,0,4,0,0,0.0,1130000.0,2024-12-24,3219 Roseville Road ,North Dumfries ,Ontario,N0B 1E0,43.3411,-80.4768,10780.0,,"Finished, Full ",,2-Storey ,Forced Air ,Central Air ,False,,True,False,detached-indicator,False
200,2,4763065,"Single Family Residence, Two Story ",Single Family Residence,Detached,2000.0,3,0,3,3,1,3.5,935000.0,2024-12-29,217 Sedgewood Street ,Kitchener ,Ontario,N2P 2N3,43.3719,-80.4421,3000.0,2020.0,Finished ,,Two Story ,"Forced Air,  Natural Gas ",Central Air ,False,,False,False,detached-indicator,False
201,2,4763065,"Single Family Residence, Two Story ",Single Family Residence,Detached,1491.0,5,0,5,2,2,3.0,860000.0,2024-12-29,65 Banffshire Street ,Kitchener ,Ontario,N2R 1W2,43.3867,-80.4719,4350.0,,Finished ,,Two Story ,"Forced Air,  Natural Gas ",Central Air ,False,,False,False,detached-indicator,False
202,2,4763065,"Row/Townhouse, Two Story ",Row/Townhouse,Townhouse,2225.0,3,0,3,3,1,3.5,895000.0,2024-12-31,2 Stonehill Avenue E ,Kitchener ,Ontario,N2R 0N8,43.3818,-80.483,,,Finished ,,Two Story ,"Forced Air,  Natural Gas ",Central Air ,False,,False,False,townhouse-indicator,False
203,2,4763065,"Row/Townhouse, Stacked Townhouse ",Row/Townhouse,Townhouse,1225.0,2,0,2,2,1,2.5,535000.0,2025-01-03,152 Wheat Lane ,Kitchener ,Ontario,N2R 0R4,43.38,-80.4812,,2022.0,None ,,Stacked Townhouse ,Forced Air ,Central Air ,False,,False,False,townhouse-indicator,False
204,2,4763065,"Single Family Residence, Two Story ",Single Family Residence,Detached,2188.0,4,0,4,3,1,3.5,900000.0,2025-01-03,956 Bianca Court ,Kitchener ,Ontario,N2R 1Y8,43.3911,-80.4804,2900.0,,Finished ,,Two Story ,Forced Air ,Central Air ,False,,False,False,detached-indicator,False
205,2,4763065,"Single Family Residence, Two Story ",Single Family Residence,Detached,2122.0,3,0,3,2,1,2.5,975000.0,2025-01-03,258 Sedgewood Street ,Kitchener ,Ontario,N2P 2N3,43.3721,-80.4435,3500.0,,Unfinished ,,Two Story ,"Electric Forced Air,  Natural Gas ",Central Air ,False,,False,False,detached-indicator,False
206,2,4763065,"Single Family Residence, Two Story ",Single Family Residence,Detached,1570.0,4,0,4,2,0,2.0,910000.0,2025-01-03,82 Cedar Crescent ,Wilmot ,Ontario,N0B 2E0,43.3487,-80.5324,,,Partially Finished ,,Two Story ,Forced Air ,Central Air ,False,,False,False,detached-indicator,False
207,2,4763065,"Single Family Residence, Two Story ",Single Family Residence,Detached,2575.0,6,0,6,3,1,3.5,1150000.0,2025-01-06,11 Netherwood Road ,Kitchener ,Ontario,N2P 2X5,43.3742,-80.4364,4028.0,2016.0,"Finished, Separate Entrance ",,Two Story ,"Forced Air,  Natural Gas ",Central Air ,False,,False,False,detached-indicator,False
208,2,4763065,"Row/Townhouse, Two Story ",Row/Townhouse,Townhouse,2095.0,4,0,4,4,1,4.5,860000.0,2025-01-08,85 Grassbourne Avenue ,Kitchener ,Ontario,N0B 2E0,43.3774,-80.4832,2600.0,2023.0,"Finished, Walk-Out Access ",,Two Story ,Forced Air ,Central Air ,False,,False,False,townhouse-indicator,False
209,2,4763065,"Row/Townhouse, Two Story ",Row/Townhouse,Townhouse,1709.0,3,0,3,3,1,3.5,790000.0,2025-01-14,8 Pony Way ,Kitchener ,Ontario,N2R 1R2,43.3853,-80.4755,2450.0,2021.0,Finished ,,Two Story ,Forced Air ,Central Air ,False,,False,False,townhouse-indicator,False
212,2,4763065,"Row/Townhouse, Stacked Townhouse ",Row/Townhouse,Townhouse,977.0,3,0,3,2,0,2.0,515000.0,2025-01-16,Unit 71 - 261 Woodbine Avenue ,Kitchener ,Ontario,N2R 0P7,43.3921,-80.4858,,,,,Stacked Townhouse ,Natural Gas ,Central Air ,False,,False,False,townhouse-indicator,False
213,2,4763065,"Detached, Single Family Residence, Bungalow ","Detached, Single Family Residence",Detached,895.0,2,0,2,1,0,1.0,580000.0,2025-01-16,60 Cedar Crescent ,Wilmot ,Ontario,N0B 2E0,43.3486,-80.5328,16104.0,1934.0,Unfinished ,,Bungalow ,"Forced Air,  Natural Gas ",,False,,False,False,detached-indicator,False
214,2,4763065,"Single Family Residence, Two Story ",Single Family Residence,Detached,2509.0,4,0,4,3,1,3.5,1175000.0,2025-01-16,842 Robert Ferrie Drive ,Kitchener ,Ontario,N2R 0B9,43.3785,-80.4469,,2021.0,Finished ,,Two Story ,"Forced Air,  Natural Gas ",Central Air ,False,,False,False,detached-indicator,False
215,2,4763065,"Single Family Residence, Two Story ",Single Family Residence,Detached,1600.0,3,0,3,2,1,2.5,838000.0,2025-01-17,29 Blue Oak Street ,Kitchener ,Ontario,N2R 0K3,43.383,-80.4971,2640.0,2016.0,Unfinished ,,Two Story ,Natural Gas ,Central Air ,False,,False,False,detached-indicator,False
216,2,4763065,"Row/Townhouse, Bungalow ",Row/Townhouse,Townhouse,782.0,1,0,1,1,0,1.0,455900.0,2025-01-17,Unit F022 - 15 Stauffer Woods Trail ,Kitchener ,Ontario,N2P 2P3,43.3671,-80.443,,,,,Bungalow ,"Forced Air,  Natural Gas ",Central Air ,False,,False,False,townhouse-indicator,False
217,2,4763065,"Row/Townhouse, Stacked Townhouse ",Row/Townhouse,Townhouse,1121.0,2,0,2,1,1,1.5,499900.0,2025-01-17,Unit C - 25 Sienna Street ,Kitchener ,Ontario,N2R 1P7,43.3844,-80.4883,,2015.0,None ,,Stacked Townhouse ,Forced Air ,Central Air ,False,,False,False,townhouse-indicator,False
218,2,4763065,"Single Family Residence, Bungalow ",Single Family Residence,Detached,1715.0,3,0,3,2,1,2.5,865000.0,2025-01-17,59 Nith River Way ,North Dumfries ,Ontario,N0B 1E0,43.2919,-80.4659,,1992.0,"Unfinished, Unfinished ",,Bungalow ,"Forced Air,  Natural Gas ",Central Air ,False,,False,False,detached-indicator,False
219,2,4763065,"Single Family Residence, Two Story ",Single Family Residence,Detached,2496.0,5,0,5,2,1,2.5,1300000.0,2025-01-17,967 Doon Village Road ,Kitchener ,Ontario,N2P 1A1,43.3895,-80.4369,15456.0,2009.0,"Finished, Walk-Out Access ",,Two Story ,"Forced Air,  Natural Gas ",Central Air ,False,,False,False,detached-indicator,False
220,2,4763065,"Single Family Residence, Two Story ",Single Family Residence,Detached,2164.0,4,0,4,3,1,3.5,1080000.0,2025-01-19,425 Woodbine Avenue ,Kitchener ,Ontario,N2R 0A6,43.3922,-80.4806,4514.0,2015.0,"Finished, Walk-Out Access ",,Two Story ,"Forced Air,  Natural Gas ",Central Air ,False,,False,False,detached-indicator,False
221,2,4763065,"Single Family Residence, Two Story ",Single Family Residence,Detached,1621.0,3,0,3,2,1,2.5,850000.0,2025-01-20,27 Verona Street ,Kitchener ,Ontario,N2R 1T4,43.3842,-80.4849,3120.0,2006.0,Finished ,,Two Story ,"Forced Air,  Natural Gas ",Central Air ,False,,False,False,detached-indicator,False
224,2,4763065,"Semi Detached, Single Family Residence, Bungalow ","Semi Detached, Single Family Residence",Semi-Detached,1067.0,5,0,5,2,0,2.0,642000.0,2025-01-24,37 Harvest Court ,Kitchener ,Ontario,N2P 1T3,43.3919,-80.4422,4867.0,1983.0,"Partially Finished, Full ",,Bungalow ,"Forced Air,  Natural Gas ",Central Air ,False,,False,False,semi-detached-indicator,False
226,2,4763065,"Row/Townhouse, 3 Storey ",Row/Townhouse,Townhouse,1418.0,3,0,3,2,1,2.5,670000.0,2025-01-27,216 Sophia Crescent ,Kitchener ,Ontario,N2R 1X8,43.3863,-80.4883,1854.0,,Finished ,,3 Storey ,"Forced Air,  Natural Gas ",Central Air ,False,,False,False,townhouse-indicator,False
227,2,4763065,"Row/Townhouse, Two Story ",Row/Townhouse,Townhouse,1518.0,3,0,3,2,1,2.5,730000.0,2025-01-27,12 Roper Place ,Kitchener ,Ontario,N2R 1R2,43.3854,-80.4759,1764.0,2023.0,"Unfinished, Unfinished ",,Two Story ,"Forced Air,  Natural Gas ",Central Air ,False,,False,False,townhouse-indicator,False
228,2,4763065,"Single Family Residence, Two Story ",Single Family Residence,Detached,1685.0,3,0,3,2,1,2.5,875000.0,2025-01-28,208 Woodbine Avenue ,Kitchener ,Ontario,N2R 1Y5,43.3894,-80.4857,3450.0,2021.0,Unfinished ,,Two Story ,"Forced Air,  Natural Gas ",Central Air ,False,,False,False,detached-indicator,False
230,2,4763065,"Row/Townhouse, Two Story ",Row/Townhouse,Townhouse,1543.0,3,0,3,2,1,2.5,690000.0,2025-01-30,30 Tudor Street ,Kitchener ,Ontario,N2R 1W3,43.3864,-80.4708,2156.0,,"Finished, Walk-Out Access ",,Two Story ,"Forced Air,  Natural Gas ",Central Air ,False,,False,False,townhouse-indicator,False
231,2,4763065,"Row/Townhouse, 3 Storey ",Row/Townhouse,Townhouse,1405.0,3,0,3,2,1,2.5,700000.0,2025-01-31,284 Sophia Crescent ,Kitchener ,Ontario,N2R 1X9,43.3868,-80.4858,1944.0,2007.0,None ,,3 Storey ,"Forced Air,  Natural Gas ",Central Air ,False,,False,False,townhouse-indicator,False
232,2,4763065,"Row/Townhouse, Stacked Townhouse ",Row/Townhouse,Townhouse,998.0,2,0,2,2,0,2.0,499900.0,2025-01-31,Unit 25 - 10 South Creek Drive ,Kitchener ,Ontario,N2P 2R3,43.3774,-80.4438,,,None ,,Stacked Townhouse ,"Forced Air,  Natural Gas ",Central Air ,False,,False,False,townhouse-indicator,False
233,2,4763065,"Single Family Residence, Two Story ",Single Family Residence,Detached,2450.0,4,0,4,3,1,3.5,1077500.0,2025-01-31,272 Broadacre Drive ,Kitchener ,Ontario,N2R 0S6,43.3775,-80.4771,3910.0,,Unfinished ,,Two Story ,"Forced Air,  Natural Gas ",Central Air ,False,,False,False,detached-indicator,False
234,2,4763065,"Single Family Residence, Two Story ",Single Family Residence,Detached,2585.0,4,0,4,2,1,2.5,1065000.0,2025-01-31,63 Netherwood Road ,Kitchener ,Ontario,N2P 2X5,43.3735,-80.4347,4690.0,,Unfinished ,,Two Story ,Forced Air ,Central Air ,False,,False,False,detached-indicator,False
235,2,4763065,"Freehold Townhouse, 2-Storey ",Freehold Townhouse,Townhouse,1639.0,3,0,3,0,0,0.0,755000.0,2025-02-03,57 Woodedge Circle ,Kitchener ,Ontario,N2R 0P8,43.3813,-80.4743,2600.0,,Unfinished ,,2-Storey ,Forced Air ,Central Air ,False,,True,False,townhouse-indicator,False
236,2,4763065,"Detached, 2-Storey ",Detached,Detached,1750.0,5,0,5,0,0,0.0,940000.0,2025-02-03,47 Watermill Street ,Kitchener ,Ontario,N2P 2X5,43.3744,-80.4325,3450.0,,"Finished, Separate Entrance ",,2-Storey ,Forced Air ,Central Air ,False,,True,False,detached-indicator,False
237,2,4763065,"Detached, 2-Storey ",Detached,Detached,2750.0,4,0,4,0,0,0.0,1150000.0,2025-02-05,31 Rockcliffe Drive ,Kitchener ,Ontario,N2R 1W5,43.3847,-80.4699,5035.0,,Unfinished ,,2-Storey ,Forced Air ,Central Air ,False,,True,False,detached-indicator,False
238,2,4763065,"Freehold Townhouse, Bungalow ",Freehold Townhouse,Townhouse,1750.0,3,0,3,0,0,0.0,925000.0,2025-02-06,179 Doon Mills Dr ,Kitchener ,Ontario,N2P 2S1,43.3865,-80.4328,,,Finished ,,Bungalow ,Forced Air ,Central Air ,False,,True,False,townhouse-indicator,False
239,2,4763065,"Single Family Residence, Two Story ",Single Family Residence,Detached,2786.0,4,0,4,3,1,3.5,1195000.0,2025-02-07,Unit Lot 0032 - 162 Shaded Creek Drive ,Kitchener ,Ontario,N2P 0K7,43.3655,-80.4414,4000.0,,Unfinished ,,Two Story ,"Forced Air,  Natural Gas,  Heat Pump ","Energy Efficient,  Other ",False,,False,False,detached-indicator,False
240,2,4763065,"Single Family Residence, Two Story ",Single Family Residence,Detached,2578.0,4,0,4,2,1,2.5,1135000.0,2025-02-07,900 Steepleridge Court ,Kitchener ,Ontario,N2P 2X4,43.3758,-80.4365,4223.0,2012.0,Finished ,,Two Story ,"Forced Air,  Natural Gas ","Central Air,  Humidity Control ",False,,False,False,detached-indicator,False
241,2,4763065,"Single Family Residence, 1.5 Storey ",Single Family Residence,Detached,2783.0,3,0,3,1,1,1.5,1225000.0,2025-02-08,2259 Cedar Creek Road ,North Dumfries ,Ontario,N0B 1E0,43.3362,-80.4174,,1870.0,Unfinished ,,1.5 Storey ,Oil Forced Air ,,False,,False,False,detached-indicator,False
242,2,4763065,"Single Family Residence, Two Story ",Single Family Residence,Detached,1525.0,3,0,3,3,1,3.5,890000.0,2025-02-14,149 Maitland Street ,Kitchener ,Ontario,N2R 0C2,43.3868,-80.4792,3100.0,2015.0,"Finished, Full ",,Two Story ,"Forced Air,  Natural Gas ",Central Air ,False,,False,False,detached-indicator,False
243,2,4763065,"Detached, Bungaloft ",Detached,Detached,2166.0,3,0,3,0,0,0.0,1030000.0,2025-02-14,760 ROBERT FERRIE Drive ,Kitchener ,Ontario,N2R 0B2,43.3779,-80.4427,4576.0,,"Partially Finished, Full ",,Bungaloft ,Forced Air ,Central Air ,False,,True,False,detached-indicator,False
244,2,4763065,"Condo/Apt Unit, Two Story ",Condo/Apt Unit,Condominium,1729.0,4,0,4,2,0,2.0,2600.0,2025-02-19,Unit 41 - 15 Stauffer Woods Trail ,Kitchener ,Ontario,N2P 2P3,43.3671,-80.443,,,,,Two Story ,Natural Gas ,Central Air ,False,,False,False,condo-indicator,False
246,2,4763065,"Single Family Residence, Two Story ",Single Family Residence,Detached,2717.0,6,0,6,3,1,3.5,1185000.0,2025-02-19,443 Hearthwood Drive ,Kitchener ,Ontario,N2R 1K6,43.383,-80.4552,5050.0,,Finished ,,Two Story ,"Forced Air,  Heat Pump ","Central Air,  Energy Efficient ",False,,False,False,detached-indicator,False
247,2,4763065,"Row/Townhouse, Two Story ",Row/Townhouse,Townhouse,1215.0,3,0,3,3,1,3.5,765000.0,2025-02-20,51 Meadowridge Street ,Kitchener ,Ontario,N2P 2N3,43.3739,-80.4393,2704.0,2015.0,Finished ,,Two Story ,"Forced Air,  Natural Gas ",Central Air ,False,,False,False,townhouse-indicator,False
248,2,4763065,"Single Family Residence, Two Story ",Single Family Residence,Detached,2590.0,4,0,4,3,1,3.5,1095000.0,2025-02-20,126 Broadacre Drive ,Kitchener ,Ontario,N2R 1R7,43.3766,-80.4825,3910.0,,Unfinished ,,Two Story ,"Fireplace(s),  Forced Air ",Central Air ,False,,False,False,detached-indicator,False
249,2,4763065,"Single Family Residence, Two Story ",Single Family Residence,Detached,2308.0,6,0,6,3,1,3.5,1080000.0,2025-02-20,703 Robert Ferrie Drive ,Kitchener ,Ontario,N2P 2R3,43.3789,-80.4406,3600.0,2011.0,"Finished, Walk-Out Access ",,Two Story ,"Forced Air,  Natural Gas ",Central Air ,False,,False,False,detached-indicator,False
250,2,4763065,"Single Family Residence, Two Story ",Single Family Residence,Detached,1642.0,3,0,3,2,1,2.5,805493.0,2025-02-21,Unit LOT 0103 - 100 Jacob Detweiller Drive ,Kitchener ,Ontario,N2P 0K7,43.3659,-80.4429,2760.0,,Unfinished ,,Two Story ,"Forced Air,  Natural Gas,  Heat Pump ","Energy Efficient,  Other ",False,,False,False,detached-indicator,False
251,2,4763065,"Single Family Residence, Bungalow ",Single Family Residence,Detached,1196.0,5,0,5,2,0,2.0,790000.0,2025-02-21,63 Wheatfield Crescent ,Kitchener ,Ontario,N2P 1P7,43.3902,-80.4462,4950.0,1985.0,"Finished, Walk-Out Access ",,Bungalow ,Forced Air ,Central Air ,False,,False,False,detached-indicator,False
253,2,4763065,"Single Family Residence, Two Story ",Single Family Residence,Detached,3420.0,4,0,4,3,1,3.5,1350000.0,2025-02-21,95 Georgina Street ,Kitchener ,Ontario,N2R 0S6,43.3785,-80.4783,5733.0,,"Unfinished, Unfinished ",,Two Story ,Natural Gas ,Central Air ,False,,False,False,detached-indicator,False
256,2,4763065,"Detached, 2-Storey ",Detached,Detached,2546.0,6,0,6,0,0,0.0,1100000.0,2025-02-25,27 Elmbank Trail ,Kitchener ,Ontario,N2R 0B3,43.3761,-80.4439,4251.0,,"Finished, Apartment ",,2-Storey ,Forced Air ,,False,,True,False,detached-indicator,False
257,2,4763065,"Single Family Residence, Two Story ",Single Family Residence,Detached,1597.0,3,0,3,2,1,2.5,875000.0,2025-02-26,174 Parkvale Drive ,Kitchener ,Ontario,N2R 1Z1,43.389,-80.4771,3535.0,,"Finished, Walk-Out Access ",,Two Story ,"Forced Air,  Natural Gas ",Central Air ,False,,False,False,detached-indicator,False
258,2,4763065,"Row/Townhouse, Two Story ",Row/Townhouse,Townhouse,1538.0,2,0,2,2,1,2.5,538000.0,2025-02-27,Unit 21C - 388 Old Huron Road ,Kitchener ,Ontario,N2R 0J6,43.3926,-80.4635,,,None ,,Two Story ,"Forced Air,  Natural Gas ",Central Air ,False,,False,False,townhouse-indicator,False
259,2,4763065,"Single Family Residence, 2.5 Storey ",Single Family Residence,Detached,2176.0,6,0,6,3,1,3.5,970000.0,2025-02-27,11 Frankfurt Street ,Kitchener ,Ontario,N2R 1T5,43.3837,-80.4857,3328.0,2007.0,"Finished, Separate Entrance ",,2.5 Storey ,"Fireplace-Gas,  Forced Air,  Natural Gas ",Central Air ,False,,False,False,detached-indicator,False
260,2,4763065,"Single Family Residence, Two Story ",Single Family Residence,Detached,1807.0,3,0,3,1,1,1.5,820000.0,2025-02-28,94 Sophia Crescent ,Kitchener ,Ontario,N2R 1X6,43.3861,-80.4876,3180.0,2006.0,Unfinished ,,Two Story ,"Forced Air,  Natural Gas ",Central Air ,False,,False,False,detached-indicator,False
261,2,4763065,"Single Family Residence, Two Story ",Single Family Residence,Detached,1669.0,3,0,3,1,1,1.5,810000.0,2025-02-28,218 Doon Mills Drive ,Kitchener ,Ontario,N2P 2R9,43.3873,-80.4341,5520.0,2003.0,"Unfinished, Unfinished ",,Two Story ,"Forced Air,  Natural Gas ",Central Air ,False,,False,False,detached-indicator,False
262,2,4763065,"Condo/Apt Unit, Two Story ",Condo/Apt Unit,Condominium,1550.0,3,0,3,3,0,3.0,579000.0,2025-03-02,78 Wheat Lane ,Kitchener ,Ontario,N2R 0R6,43.3797,-80.4828,,2022.0,,,Two Story ,"Forced Air,  Natural Gas ",Central Air ,False,,False,False,condo-indicator,False
263,2,4763065,"Row/Townhouse, Stacked Townhouse ",Row/Townhouse,Townhouse,753.0,1,0,1,1,0,1.0,370000.0,2025-03-03,Unit A - 228 Jessica Crescent ,Kitchener ,Ontario,N2R 1X7,43.3852,-80.4884,,2013.0,None ,,Stacked Townhouse ,"Forced Air,  Natural Gas ",Central Air ,False,,False,False,townhouse-indicator,False
264,2,4763065,"Single Family Residence, Two Story ",Single Family Residence,Detached,3128.0,6,0,6,3,1,3.5,1200000.0,2025-03-03,48 Southridge Drive ,Kitchener ,Ontario,N2P 2Y2,43.3756,-80.4294,6888.0,,Finished ,,Two Story ,"Forced Air,  Natural Gas ",Central Air ,False,,False,False,detached-indicator,False
265,2,4763065,"Row/Townhouse, 3 Storey ",Row/Townhouse,Townhouse,1695.0,3,0,3,2,1,2.5,755000.0,2025-03-04,118 Monarch Woods Drive ,Kitchener ,Ontario,N2P 2N7,43.3786,-80.4201,1764.0,2021.0,"Finished, Walk-Out Access ",,3 Storey ,"Forced Air,  Natural Gas ",Central Air ,False,,False,False,townhouse-indicator,False
266,2,4763065,"Single Family Residence, Two Story ",Single Family Residence,Detached,2003.0,4,0,4,2,1,2.5,949900.0,2025-03-04,Unit Lot 0029 - 150 Shaded Creek Drive ,Kitchener ,Ontario,N2P 0K7,43.3655,-80.441,3000.0,,Unfinished ,,Two Story ,"Forced Air,  Natural Gas,  Heat Pump ","Energy Efficient,  Other ",False,,False,False,detached-indicator,False
267,2,4763065,"Single Family Residence, Two Story ",Single Family Residence,Detached,2441.0,4,0,4,3,1,3.5,1100000.0,2025-03-04,38 Mistywood Street ,Kitchener ,Ontario,N2P 2N1,43.3719,-80.4379,3852.0,2016.0,Finished ,,Two Story ,"Fireplace(s),  Forced Air,  Natural Gas ",Central Air ,False,,False,False,detached-indicator,False
268,2,4763065,"Detached, 2-Storey ",Detached,Detached,2264.0,4,0,4,0,0,0.0,942000.0,2025-03-05,63 Saddlebrook Court ,Kitchener ,Ontario,N2R 0P6,43.3849,-80.4741,4116.0,,"Unfinished, Walk-Out ",,2-Storey ,Forced Air ,Central Air ,False,,True,False,detached-indicator,False
269,2,4763065,"Row/Townhouse, Two Story ",Row/Townhouse,Townhouse,1450.0,3,0,3,2,1,2.5,625000.0,2025-03-06,Unit 16 - 235 Chapel Hill Drive ,Kitchener ,Ontario,N2R 0S4,43.3788,-80.4514,,,None ,,Two Story ,"Forced Air,  Natural Gas ",Central Air ,False,,False,False,townhouse-indicator,False
274,2,4763065,"Single Family Residence, Two Story ",Single Family Residence,Detached,3200.0,4,0,4,3,1,3.5,1400000.0,2025-03-10,300 Forest Creek Drive ,Kitchener ,Ontario,N2R 0M6,43.3845,-80.4444,4725.0,,"Unfinished, Walk-Out Access ",,Two Story ,Forced Air ,Central Air ,False,,False,False,detached-indicator,False
275,2,4763065,"Row/Townhouse, Two Story ",Row/Townhouse,Townhouse,1818.0,3,0,3,3,1,3.5,822000.0,2025-03-12,104 Hollybrook Trail ,Kitchener ,Ontario,N2P 2R3,43.3825,-80.4428,2166.0,2019.0,"Finished, Full ",,Two Story ,"Forced Air,  Natural Gas ",Central Air ,False,,False,False,townhouse-indicator,False
276,2,4763065,"Condo Townhouse, Stacked Townhouse ",Condo Townhouse,Condominium,750.0,1,0,1,0,0,0.0,386500.0,2025-03-12,388 Old Huron Road ,Kitchener ,Ontario,N2R 0J6,43.3926,-80.4635,,,None ,,Stacked Townhouse ,Forced Air ,,False,,True,False,condo-indicator,False
278,2,4763065,"Semi Detached, Single Family Residence, Two Story ","Semi Detached, Single Family Residence",Semi-Detached,1370.0,3,0,3,1,1,1.5,700800.0,2025-03-12,72 Old Huron Court ,Kitchener ,Ontario,N2R 1L7,43.3965,-80.4537,3000.0,1992.0,Partially Finished ,,Two Story ,"Forced Air,  Natural Gas ",Central Air ,False,,False,False,semi-detached-indicator,False
279,2,4763065,"Condo Townhouse, Stacked Townhouse ",,Condominium,950.0,2,0,2,0,0,0.0,473000.0,2025-03-13,Unit 79 - 158 Wheat Lane ,Kitchener ,Ontario,N2R 0R4,43.38,-80.4811,,,None ,,Stacked Townhouse ,Forced Air ,Central Air ,False,,True,False,condo-indicator,False
280,2,4763065,"Row/Townhouse, Stacked Townhouse ",Row/Townhouse,Townhouse,1100.0,2,0,2,1,1,1.5,510000.0,2025-03-13,Unit C - 237 Rachel Crescent ,Kitchener ,Ontario,N2R 0E1,43.3834,-80.48780000000001,,,None ,,Stacked Townhouse ,"Forced Air,  Hot Water-Other ",Central Air ,False,,False,False,townhouse-indicator,False
281,2,4763065,"Row/Townhouse, 3 Storey ",Row/Townhouse,Townhouse,2089.0,3,0,3,2,1,2.5,760000.0,2025-03-13,42 Outlook Terrace ,Kitchener ,Ontario,N2R 1R4,43.3817,-80.4947,2460.0,2016.0,,,3 Storey ,"Forced Air,  Natural Gas ",Central Air ,False,,False,False,townhouse-indicator,False
283,2,4763065,"Condo/Apt Unit, 1 Storey/Apt ",Condo/Apt Unit,Condominium,1332.0,2,0,2,2,1,2.5,544000.0,2025-03-14,Unit 50 - 261 Woodbine Avenue ,Kitchener ,Ontario,N2R 0P7,43.3921,-80.4858,,2023.0,,,1 Storey/Apt ,"Forced Air,  Natural Gas ",Central Air ,False,,False,False,condo-indicator,False
285,2,4763065,"Detached, 2-Storey ",Detached,Detached,2750.0,4,0,4,0,0,0.0,1249000.0,2025-03-16,3 William Dunlop Street ,Kitchener ,Ontario,N2R 0N7,43.3821,-80.4831,3700.0,,Finished ,,2-Storey ,Forced Air ,Central Air ,False,,True,False,detached-indicator,False
288,2,4763065,"Detached, 2-Storey ",Detached,Detached,,3,0,3,0,0,0.0,1020000.0,2025-03-24,310 NORTHUMBERLAND Street ,North Dumfries ,Ontario,N0B 1E0,43.2963,-80.4615,0.0,,"Partially Finished, Partial Basement ",,2-Storey ,Forced Air ,Central Air ,False,,True,False,detached-indicator,False
290,2,4763065,"Single Family Residence, Two Story ",Single Family Residence,Detached,2600.0,4,0,4,3,1,3.5,1284900.0,2025-03-24,27 Spachman Street ,Kitchener ,Ontario,N2R 0N5,43.3831,-80.4786,3978.0,2019.0,Unfinished ,,Two Story ,"Forced Air,  Natural Gas ",Central Air ,False,,False,False,detached-indicator,False
291,2,4763065,"Single Family Residence, Two Story ",Single Family Residence,Detached,2485.0,4,0,4,2,1,2.5,1155000.0,2025-03-24,931 Stonecliffe Walk ,Kitchener ,Ontario,N2P 2N1,43.3702,-80.4362,5880.0,2023.0,"Unfinished, Walk-Out Access ",,Two Story ,"Forced Air,  Natural Gas ",Central Air ,False,,False,False,detached-indicator,False
292,2,4763065,"Row/Townhouse, Two Story ",Row/Townhouse,Townhouse,1469.0,3,0,3,2,1,2.5,715000.0,2025-03-24,55 Meadowridge Street ,Kitchener ,Ontario,N2P 2N3,43.3738,-80.4392,1872.0,2015.0,Unfinished ,,Two Story ,"Forced Air,  Natural Gas ",Central Air ,False,,False,False,townhouse-indicator,False
293,2,4763065,"Row/Townhouse, Stacked Townhouse ",Row/Townhouse,Townhouse,400.0,1,0,1,1,1,1.5,400000.0,2025-03-25,Unit 4 - 275 Old Huron Road ,Kitchener ,Ontario,N2R 1P9,43.3956,-80.4613,,2012.0,Finished ,,Stacked Townhouse ,"Forced Air,  Natural Gas ",Central Air ,False,,False,False,townhouse-indicator,False
296,2,4763065,"Detached, 2-Storey ",Detached,Detached,,6,0,6,0,0,0.0,1475000.0,2025-03-25,99 Georgina Street ,Kitchener ,Ontario,N2R 0S6,43.3786,-80.4781,6000.0,,"Full, Finished ",,2-Storey ,Forced Air ,Central Air ,False,,True,False,detached-indicator,False
297,2,4763065,"Single Family Residence, Two Story ",Single Family Residence,Detached,3935.0,4,0,4,4,1,4.5,1348000.0,2025-03-26,42 Oakdale Court ,Kitchener ,Ontario,N2P 2S9,43.3871,-80.4374,7224.0,2003.0,"Finished, Walk-Out Access ",,Two Story ,"Forced Air,  Natural Gas ",Central Air ,False,,False,False,detached-indicator,False
298,2,4763065,"Single Family Residence, Sidesplit ",Single Family Residence,Detached,2016.0,4,0,4,3,0,3.0,1200000.0,2025-03-26,2 Marshall Avenue ,North Dumfries ,Ontario,N0B 1E0,43.3418,-80.4747,,,"Finished, Walk-Up Access ",,Sidesplit ,"Fireplace-Gas,  Forced Air,  Radiant Floor ",Central Air ,False,,False,False,detached-indicator,False
300,2,4763065,"Single Family Residence, 1.5 Storey ",Single Family Residence,Detached,1147.0,3,0,3,1,0,1.0,687500.0,2025-03-28,1414 Bridge Street ,Wilmot ,Ontario,N3A 3E4,43.3502,-80.5312,,,Partially Finished ,,1.5 Storey ,Heat Pump ,Other ,False,,False,False,detached-indicator,False
301,2,4763065,"Condo Townhouse, Stacked Townhouse ",Condo Townhouse,Condominium,750.0,1,0,1,0,0,0.0,422000.0,2025-03-28,Unit 18 - 275 OLD HURON Road ,Kitchener ,Ontario,N2R 1P9,43.3956,-80.4613,,,"Finished, Full ",,Stacked Townhouse ,Forced Air ,Central Air ,False,,True,False,condo-indicator,False
304,2,4763065,"Single Family Residence, Two Story ",Single Family Residence,Detached,2356.0,5,0,5,3,1,3.5,982000.0,2025-04-01,618 Doon South Drive ,Kitchener ,Ontario,N2P 2X4,43.3758,-80.4337,,,"Finished, Walk-Up Access ",,Two Story ,"Forced Air,  Natural Gas ",Central Air ,False,,False,False,detached-indicator,False
305,2,4763065,"Single Family Residence, Two Story ",Single Family Residence,Detached,2115.0,6,0,6,3,1,3.5,1125000.0,2025-04-01,92 Rush Meadow Street ,Kitchener ,Ontario,N2R 1T2,43.3885,-80.4651,5106.0,,"Finished, Other ",,Two Story ,"Forced Air,  Natural Gas ",Central Air ,False,,False,False,detached-indicator,False
306,2,4763065,"Single Family Residence, Two Story ",Single Family Residence,Detached,2217.0,4,0,4,2,1,2.5,980000.0,2025-04-02,37 Parkglen Street ,Kitchener ,Ontario,N2R 0L8,43.386,-80.4991,,,Unfinished ,,Two Story ,"Forced Air,  Natural Gas ",Central Air ,False,,False,False,detached-indicator,False
307,2,4763065,"Row/Townhouse, Stacked Townhouse ",Row/Townhouse,Townhouse,1162.0,3,0,3,2,0,2.0,520000.0,2025-04-02,Unit B - 164 Rochefort Street ,Kitchener ,Ontario,N2R 0P5,43.3858,-80.4774,,,,,Stacked Townhouse ,"Forced Air,  Natural Gas ",Central Air ,False,,False,False,townhouse-indicator,False
308,2,4763065,"Single Family Residence, Bungalow ",Single Family Residence,Detached,1308.0,4,0,4,2,1,2.5,880000.0,2025-04-03,215 Black Walnut Place ,Kitchener ,Ontario,N2P 1T5,43.3919,-80.4539,5777.0,1981.0,"Finished, Walk-Out Access ",,Bungalow ,"Forced Air,  Natural Gas ",Central Air ,False,,False,False,detached-indicator,False
310,2,4763065,"Detached, 2-Storey ",Detached,Detached,2250.0,4,0,4,0,0,0.0,1040000.0,2025-04-03,121 Haldimand Street ,Kitchener ,Ontario,N3A 3E4,43.3785,-80.483,,,Unfinished ,,2-Storey ,Forced Air ,Central Air ,False,,True,False,detached-indicator,False
312,2,4763065,"Single Family Residence, Two Story ",Single Family Residence,Detached,2470.0,3,0,3,2,1,2.5,1080000.0,2025-04-04,236 Tall Grass Crescent ,Kitchener ,Ontario,N2P 2N3,43.3715,-80.4428,,,"Unfinished, Unfinished ",,Two Story ,"Fireplace-Gas,  Natural Gas ",Central Air ,False,,False,False,detached-indicator,False
313,2,4763065,"Single Family Residence, Backsplit ",Single Family Residence,Detached,1950.0,4,0,4,2,0,2.0,840000.0,2025-04-05,53 Apple Ridge Drive ,Kitchener ,Ontario,N2P 2S2,43.3857,-80.4359,,,Unfinished ,,Backsplit ,Natural Gas ,Central Air ,False,,False,False,detached-indicator,False
314,2,4763065,"Row/Townhouse, 3 Storey ",Row/Townhouse,Townhouse,1608.0,3,0,3,1,1,1.5,615000.0,2025-04-08,Unit 1 - 285 Old Huron Road ,Kitchener ,Ontario,N2R 0C4,43.3956,-80.4623,,2012.0,Unfinished ,,3 Storey ,Forced Air ,Central Air ,False,,False,False,townhouse-indicator,False
315,2,4763065,"Single Family Residence, Two Story ",Single Family Residence,Detached,1823.0,3,0,3,3,1,3.5,930000.0,2025-04-08,356 Sienna Crescent ,Kitchener ,Ontario,N2R 1T8,43.3848,-80.4871,,,Finished ,,Two Story ,Forced Air ,Central Air ,False,,False,False,detached-indicator,False
316,2,4763065,"Single Family Residence, Two Story ",Single Family Residence,Detached,1738.0,3,0,3,2,1,2.5,870000.0,2025-04-09,30 Pompeii Street ,Kitchener ,Ontario,N2R 0A8,43.3913,-80.4824,,,"Unfinished, Unfinished ",,Two Story ,"Forced Air,  Natural Gas ",Central Air ,False,,False,False,detached-indicator,False
317,2,4763065,"Single Family Residence, Sidesplit ",Single Family Residence,Detached,2203.0,4,0,4,2,1,2.5,1360000.0,2025-04-10,289 Casselholme Crescent ,Wilmot ,Ontario,N0B 2E0,43.3472,-80.5342,,,Finished ,,Sidesplit ,"Forced Air,  Natural Gas ",Central Air ,False,,False,False,detached-indicator,False
318,2,4763065,"Single Family Residence, Bungalow Raised ",Single Family Residence,Detached,1022.0,3,0,3,1,1,1.5,741000.0,2025-04-10,60 Wheatfield Crescent ,Kitchener ,Ontario,N2P 1P7,43.3905,-80.4468,,,Finished ,,Bungalow Raised ,Forced Air ,Central Air ,False,,False,False,detached-indicator,False
319,2,4763065,"Single Family Residence, Two Story ",Single Family Residence,Detached,1817.0,5,0,5,3,1,3.5,948888.0,2025-04-11,204 Cranbrook Street ,Kitchener ,Ontario,N2P 2V1,43.3772,-80.4358,,,Finished ,,Two Story ,"Forced Air,  Natural Gas ",Central Air ,False,,False,False,detached-indicator,False
320,2,4763065,"Single Family Residence, Two Story ",Single Family Residence,Detached,1556.0,3,0,3,2,1,2.5,825000.0,2025-04-11,366 Steepleridge Street ,Kitchener ,Ontario,N2P 2X4,43.3757,-80.4346,,,"Finished, Finished ",,Two Story ,"Forced Air,  Natural Gas ",Central Air ,False,,False,False,detached-indicator,False
321,2,4763065,"Link, 2-Storey ",Link,Detached,2750.0,4,0,4,0,0,0.0,1130500.0,2025-04-11,61 BROADACRE Drive ,Kitchener ,Ontario,N3A 3E4,43.3766,-80.4847,,,"Full, Unfinished ",,2-Storey ,Forced Air ,Central Air ,False,,True,False,detached-style,False
322,2,4763065,"Single Family Residence, Two Story ",Single Family Residence,Detached,2436.0,4,0,4,3,1,3.5,1039000.0,2025-04-12,321 Woodbine Avenue ,Kitchener ,Ontario,N2R 0L2,43.3923,-80.4842,,,"Unfinished, Walk-Out Access ",,Two Story ,"Forced Air,  Natural Gas ",Central Air ,False,,False,False,detached-indicator,False
325,2,4763065,"Single Family Residence, Two Story ",Single Family Residence,Detached,2544.0,5,0,5,3,1,3.5,1160000.0,2025-04-15,46 Ridgemount Street ,Kitchener ,Ontario,N2P 0J3,43.3756,-80.4186,,,"Finished, Walk-Out Access ",,Two Story ,"Forced Air,  Natural Gas,  Radiant Floor ",Central Air ,False,,False,False,detached-indicator,False
326,2,4763065,"Single Family Residence, Two Story ",Single Family Residence,Detached,2482.0,6,0,6,4,1,4.5,1152000.0,2025-04-16,91 Parkvale Drive ,Kitchener ,Ontario,N2R 1Z6,43.3895,-80.4747,,,Finished ,,Two Story ,"Forced Air,  Natural Gas ",Central Air ,False,,False,False,detached-indicator,False
327,2,4763065,"Single Family Residence, Two Story ",Single Family Residence,Detached,2128.0,4,0,4,2,1,2.5,990000.0,2025-04-17,3 Milt Schmidt Street ,Kitchener ,Ontario,N2R 0T2,43.3948,-80.5026,,,"Partially Finished, Partially Finished ",,Two Story ,"Forced Air,  Natural Gas ",Central Air ,False,,False,False,detached-indicator,False
330,2,4763065,"Freehold Townhouse, 2-Storey ",Freehold Townhouse,Townhouse,1300.0,3,0,3,0,0,0.0,730000.0,2025-04-22,5 Wildflower Street ,Kitchener ,Ontario,N2P 0B7,43.3733,-80.4359,,,Unfinished ,,2-Storey ,Forced Air ,Central Air ,False,,True,False,townhouse-indicator,False
331,2,4763065,"Row/Townhouse, Stacked Townhouse ",Row/Townhouse,Townhouse,1230.0,2,0,2,2,1,2.5,475000.0,2025-04-23,36 Progress Crescent ,Kitchener ,Ontario,N2R 0R7,43.3881,-80.4901,,,Finished ,,Stacked Townhouse ,"Forced Air,  Heat Pump ",Central Air ,False,,False,False,townhouse-indicator,False
333,2,4763065,"Single Family Residence, Two Story ",Single Family Residence,Detached,2080.0,5,0,5,3,2,4.0,955000.0,2025-04-23,110 Steepleridge Street ,Kitchener ,Ontario,N2P 2W2,43.3777,-80.4339,,,"Finished, Walk-Out ",,Two Story ,"Forced Air,  Natural Gas ",Central Air ,False,,False,False,detached-indicator,False
336,2,4763065,"Detached, 2-Storey ",Detached,Detached,1750.0,5,0,5,0,0,0.0,940000.0,2025-04-24,39 Wildflower Street ,Kitchener ,Ontario,N2P 2X5,43.3725,-80.4364,,,"Apartment, Finished ",,2-Storey ,Forced Air ,Central Air ,False,,True,False,detached-indicator,False
337,2,4763065,"Single Family Residence, Bungalow Raised ",Single Family Residence,Detached,995.0,3,0,3,1,1,1.5,699000.0,2025-04-25,40 Sabrina Crescent ,Kitchener ,Ontario,N2P 1Y6,43.389,-80.4461,,,Finished ,,Bungalow Raised ,"Forced Air,  Natural Gas ",Central Air ,False,,False,False,detached-indicator,False
338,2,4763065,"Single Family Residence, Two Story ",Single Family Residence,Detached,2800.0,4,0,4,4,1,4.5,1200000.0,2025-04-25,63 Georgina Street ,Kitchener ,Ontario,N2R 0S6,43.3783,-80.4796,,,"Finished, Walk-Up Access ",,Two Story ,"Fireplace-Gas,  Natural Gas ",Central Air ,False,,False,False,detached-indicator,False
339,2,4763065,"Single Family Residence, Two Story ",Single Family Residence,Detached,2596.0,5,0,5,4,1,4.5,1200000.0,2025-04-25,172 Rockcliffe Drive ,Kitchener ,Ontario,N2R 1W6,43.382,-80.4726,,,"Partially Finished, Walk-Out Access ",,Two Story ,"Forced Air,  Natural Gas ",Central Air ,False,,False,False,detached-indicator,False
340,2,4763065,"Single Family Residence, Two Story ",Single Family Residence,Detached,2200.0,4,0,4,2,1,2.5,995000.0,2025-04-28,23 Shoreacres Drive ,Kitchener ,Ontario,N2R 1R4,43.3815,-80.4978,,,Unfinished ,,Two Story ,"Forced Air,  Natural Gas ",Central Air ,False,,False,False,detached-indicator,False
341,2,4763065,"Row/Townhouse, 3 Storey ",Row/Townhouse,Townhouse,1371.0,3,0,3,1,1,1.5,565000.0,2025-04-28,563 Goldenrod Lane ,Kitchener ,Ontario,N2R 0L7,43.3889,-80.4913,,,,,3 Storey ,"Forced Air,  Natural Gas ",Central Air ,False,,False,False,townhouse-indicator,False
343,2,4763065,"Detached, 2-Storey ",Detached,Detached,2250.0,4,0,4,0,0,0.0,920000.0,2025-04-28,243 Seabrook Drive ,Kitchener ,Ontario,N2R 0G2,43.3861,-80.4948,,,Unfinished ,,2-Storey ,Forced Air ,Central Air ,False,,True,False,detached-indicator,False
346,2,4763065,"Single Family Residence, Two Story ",Single Family Residence,Detached,1338.0,3,0,3,2,1,2.5,750000.0,2025-04-29,115 Vintage Crescent ,Kitchener ,Ontario,N2P 1L1,43.3931,-80.4476,,,Partially Finished ,,Two Story ,"Forced Air,  Natural Gas ",Central Air ,False,,False,False,detached-indicator,False
348,2,4763065,"Single Family Residence, Two Story ",Single Family Residence,Detached,3510.0,5,0,5,4,1,4.5,1380000.0,2025-05-01,537 Topper Woods Crescent ,Kitchener ,Ontario,N2P 2Y3,43.3786,-80.4295,,,"Finished, Walk-Out Access ",,Two Story ,"Fireplace-Gas,  Forced Air,  Natural Gas ",Central Air ,False,,False,False,detached-indicator,False
349,2,4763065,"Semi Detached, Single Family Residence, Two Story ","Semi Detached, Single Family Residence",Semi-Detached,1560.0,3,0,3,2,1,2.5,755000.0,2025-05-02,8 Seabrook Drive ,Kitchener ,Ontario,N2R 1Y2,43.388,-80.486,,,Finished ,,Two Story ,"Forced Air,  Natural Gas ",Central Air ,False,,False,False,semi-detached-indicator,False
350,2,4763065,"Single Family Residence, Two Story ",Single Family Residence,Detached,2839.0,4,0,4,3,1,3.5,1079000.0,2025-05-02,11 Hearthbridge Street ,Kitchener ,Ontario,N2R 1L5,43.3829,-80.4574,,,Finished ,,Two Story ,"Forced Air,  Natural Gas ",Central Air ,False,,False,False,detached-indicator,False
353,2,4763065,"Row/Townhouse, Bungalow ",Row/Townhouse,Townhouse,1475.0,3,0,3,3,0,3.0,842000.0,2025-05-04,Unit 12 - 900 Doon Village Road ,Kitchener ,Ontario,N2P 1A4,43.3913,-80.4393,,,Finished ,,Bungalow ,"Forced Air,  Natural Gas ",Central Air ,False,,False,False,townhouse-indicator,False
355,2,4763065,"Single Family Residence, 2.5 Storey ",Single Family Residence,Detached,3000.0,4,0,4,4,1,4.5,1275000.0,2025-05-05,955 Stonecliffe Walk ,Kitchener ,Ontario,N2P 0K5,43.3702,-80.4373,,,"Finished, Walk-Out Access ",,2.5 Storey ,"Forced Air,  Natural Gas ",Central Air ,False,,False,False,detached-indicator,False
357,2,4763065,"Single Family Residence, Two Story ",Single Family Residence,Detached,1606.0,3,0,3,3,1,3.5,860000.0,2025-05-05,593 Blair Creek Drive ,Kitchener ,Ontario,N2P 2N1,43.3718,-80.4359,,,Finished ,,Two Story ,"Forced Air,  Natural Gas ",Central Air ,False,,False,False,detached-indicator,False
359,2,4763065,"Row/Townhouse, Two Story ",Row/Townhouse,Townhouse,1497.0,3,0,3,3,1,3.5,765000.0,2025-05-05,303 Old Huron Road ,Kitchener ,Ontario,N2R 0A3,43.3946,-80.4625,,,Finished ,,Two Story ,"Fireplace(s),  Forced Air,  Natural Gas ",Central Air ,False,,False,False,townhouse-indicator,False
361,2,4763065,"Single Family Residence, Two Story ",Single Family Residence,Detached,2931.0,4,0,4,3,1,3.5,1160000.0,2025-05-08,111 Autumn Ridge Trail ,Kitchener ,Ontario,N2P 2K1,43.3792,-80.418,,,"Finished, Separate Entrance ",,Two Story ,"Forced Air,  Natural Gas ",Central Air ,False,,False,False,detached-indicator,False
362,2,4763065,"Condo Townhouse, Bungalow ",Condo Townhouse,Condominium,1500.0,2,0,2,0,0,0.0,632500.0,2025-05-09,Unit B - 201 Rachel Crescent ,Kitchener ,Ontario,N2R 0H7,43.3842,-80.4874,,,None ,,Bungalow ,Forced Air ,Central Air ,False,,True,False,condo-indicator,False
366,2,4763065,"Single Family Residence, Two Story ",Single Family Residence,Detached,2468.0,3,0,3,2,1,2.5,980000.0,2025-05-11,94 Parkvale Drive ,Kitchener ,Ontario,N2R 1Z6,43.3899,-80.475,,,Unfinished ,,Two Story ,"Fireplace-Gas,  Forced Air,  Natural Gas ",Central Air ,False,,False,False,detached-indicator,False
367,2,4763065,"Single Family Residence, Two Story ",Single Family Residence,Detached,2719.0,6,0,6,5,1,5.5,1290000.0,2025-05-12,616 Florencedale Crescent ,Kitchener ,Ontario,N2R 0N4,43.3824,-80.48,,,"Finished, Separate Entrance ",,Two Story ,"Forced Air,  Natural Gas ",Central Air ,False,,False,False,detached-indicator,False
368,3,4763086,"Detached, 1 1/2 Storey ",Detached,Detached,1839.0,2,0,2,0,0,0.0,440150.0,2024-11-18,501 CLOTHIER Street E,North Grenville Twp ,Ontario,K0G 1J0,45.0212,-75.643,7667.7,1900.0,"Fully Finished, Full ",,1 1/2 Storey ,Forced Air ,Central Air Conditioning ,False,,True,False,detached-indicator,False
369,3,4763086,"Detached, 2 Storey ",Detached,Detached,1720.0,3,0,3,0,0,0.0,605000.0,2024-11-22,311 JOSEPH Street,North Grenville Twp ,Ontario,K0G 1J0,45.0158,-75.6398,5877.0,1900.0,"Unfinished, Low ",,2 Storey ,Forced Air ,Central Air Conditioning ,False,,True,False,detached-indicator,False
370,3,4763086,"Detached, Bungalow(1 Storey) ",Detached,Detached,2056.0,3,0,3,0,0,0.0,1010000.0,2024-11-22,518 KINDRED Crescent ,Kemptville ,Ontario,K0G 1J0,45.0384,-75.6857,7481.09,2018.0,"Fully Finished, Full ",,Bungalow(1 Storey) ,Forced Air ,Central Air Conditioning ,False,,True,False,detached-indicator,False
371,3,4763086,"Freehold Townhouse, 2-Storey ",Freehold Townhouse,Townhouse,1648.0,3,0,3,0,0,0.0,489990.0,2024-11-28,614 KEATONS Way ,North Grenville ,Ontario,K0G 1J0,45.0174,-75.6665,2100.0,,"Finished, Full ",,2-Storey ,Forced Air ,Central Air ,False,,True,False,townhouse-indicator,False
372,3,4763086,Bungalow,Detached,Detached,2046.0,2,0,2,0,0,0.0,737000.0,2024-12-02,1814 BEDELL Rd,North Grenville,Ontario,K0G 1S0,44.9714,-75.6772,244.0,,"Finished, Full",,,Forced Air,Central Air,False,,False,False,detached-indicator,False
374,3,4763086,"Semi-Detached, Bungalow ",Semi-Detached,Semi-Detached,2465.0,4,0,4,0,0,0.0,710000.0,2024-12-06,33 GALENS Way,North Grenville ,Ontario,K0G 1J0,45.0116,-75.6556,,,"Full, Finished ",,Bungalow ,Forced Air ,Central Air ,False,,True,False,semi-detached-indicator,False
375,3,4763086,Detached,Detached,Detached,2497.0,4,0,4,3,0,3.0,979900.0,2024-12-12,3232 HARVESTER Cres,Kemptville,Ontario,K0G 1J0,45.0237,-75.6603,,,"Finished, Full",,One,Forced Air,Central Air,False,,False,False,detached-indicator,False
377,3,4763086,"Detached, Bungalow-Raised ",Detached,Detached,1726.0,3,0,3,0,0,0.0,585000.0,2024-12-12,1157 COUNTY 18 Road ,North Grenville ,Ontario,,45.0214,-75.653,72450.0,,"Full, Finished ",,Bungalow-Raised ,Forced Air ,Central Air ,False,,True,False,detached-indicator,False
378,3,4763086,"Detached, 2-Storey ",Detached,Detached,1837.0,3,0,3,0,0,0.0,629990.0,2024-12-12,147 ROBERT PERRY Street ,North Grenville ,Ontario,K0G 1J0,45.018,-75.6627,3100.0,,"Full, Finished ",,2-Storey ,Forced Air ,,False,,True,False,detached-indicator,False
380,3,4763086,Detached,Detached,Detached,5082.0,3,0,3,0,0,0.0,650000.0,2024-12-23,1844 GLENCREST Rd,Kemptville,Ontario,K0G 1J0,45.0223,-75.6583,3178.32,,"Finished, Full",,Two,Forced Air,Central Air,False,,False,False,detached-indicator,False
382,3,4763086,Detached,Detached,Detached,3698.0,4,0,4,3,0,3.0,1200000.0,2024-12-24,2390 CONCESSION Rd,Kemptville,Ontario,K0G 1J0,45.0005,-75.6576,446.06,,"Full, Unfinished",,2,Baseboard,Central Air,False,,False,False,detached-indicator,False
384,3,4763086,"Condo Apartment, Apartment ",Condo Apartment,Condominium,550.0,1,0,1,0,0,0.0,202000.0,2024-12-24,Unit 208 - 105 ASA Street ,North Grenville ,Ontario,K0G 1J0,45.0166,-75.6434,,,,,Apartment ,Baseboard ,,False,,True,False,condo-indicator,False
386,3,4763086,Detached,Detached,Detached,1250.0,3,0,3,1,0,1.0,425000.0,2024-12-31,935 County 44 Rd,North Grenville,Ontario,,45.0214,-75.653,15000.0,,Part Fin,,One,Forced Air,Central Air,False,,False,False,detached-indicator,False
388,3,4763086,"Condo Apartment, 2-Storey ",Condo Apartment,Condominium,1313.0,3,0,3,0,0,0.0,315000.0,2025-01-02,286 FIR Lane,North Grenville ,Ontario,K0G 1J0,45.007,-75.6427,,,"None, None ",,2-Storey ,Forced Air ,Central Air ,False,,True,False,condo-indicator,False
389,3,4763086,Freehold Townhouse,Freehold Townhouse,Townhouse,1650.0,3,0,3,1,1,1.5,560000.0,2025-01-03,18 ALMA St,Kemptville,Ontario,K0M 1A0,45.0171,-75.6501,2100.0,2006.0,"Finished, Full",,2,Forced Air,Central Air,False,,False,False,townhouse-indicator,False
392,3,4763086,Freehold Townhouse,Freehold Townhouse,Townhouse,1883.0,3,0,3,3,1,3.5,524990.0,2025-01-10,619 KEATONS Way,North Grenville,Ontario,K0G 1J0,45.0173,-75.6668,2784.0,,"Finished, Full",,Two,Forced Air,,False,,False,False,townhouse-indicator,False
394,3,4763086,Detached,Detached,Detached,2198.0,2,0,2,2,0,2.0,627000.0,2025-01-17,95 MAPLEWOOD Ave,North Grenville,Ontario,M6C 1J4,44.9638,-75.6786,31753.0,,Unfinished,,2-Storey,Other,Window Unit,False,,False,False,detached-indicator,False
398,3,4763086,Detached,Detached,Detached,1626.0,4,0,4,3,0,3.0,815000.0,2025-01-22,342 PINEHILL Rd,Kemptville,Ontario,L2R 3R6,45.0133,-75.6536,6223.0,,"Finished, Full",,One,Forced Air,Central Air,False,,False,False,detached-indicator,False
403,3,4763086,"Detached, Sidesplit 3 ",Detached,Detached,2250.0,4,0,4,0,0,0.0,810000.0,2025-01-24,609 COUNTY 44 Road ,North Grenville ,Ontario,,45.0214,-75.653,56323.0,,"Full, Partially Finished ",,Sidesplit 3 ,Forced Air ,Central Air ,False,,True,False,detached-indicator,False
406,3,4763086,Detached,Detached,Detached,2690.0,4,0,4,4,0,4.0,739990.0,2025-01-28,153 Robert Perry St,Kemptville,Ontario,K0G 1J0,45.0186,-75.663,3800.0,,"Finished, Full",,Two,Forced Air,,False,,False,False,detached-indicator,False
409,3,4763086,Bungalow,Detached,Detached,1522.0,2,0,2,3,0,3.0,747000.0,2025-01-31,339 Pinehill Rd,Kemptville,Ontario,K0G 1J0,45.0139,-75.6535,8800.0,2019.0,"Finished, Full",,,Forced Air,Central Air,False,,False,False,detached-indicator,False
410,3,4763086,Freehold Townhouse,Freehold Townhouse,Townhouse,1750.0,3,0,3,3,0,3.0,524990.0,2025-02-16,1006 Depencier Dr ,North Grenville ,Ontario,K0G 1J0,45.0219,-75.6595,2106.0,,"Finished, Full ",,2-Storey ,Forced Air ,,False,,False,False,townhouse-indicator,False
413,3,4763086,Detached,Detached,Detached,3287.0,5,0,5,4,0,4.0,920000.0,2025-02-17,56 Stonewalk Dr ,North Grenville ,Ontario,K0G 1J0,44.9844,-75.6926,74925.0,,"Finished, Full ",,2-Storey ,Forced Air ,Central Air ,False,,False,False,detached-indicator,False
416,3,4763086,Detached,Detached,Detached,2011.0,3,0,3,2,0,2.0,812000.0,2025-02-20,48 Stonewalk Dr ,North Grenville ,Ontario,K0G 1J0,44.9862,-75.6944,,,"Full, Part Fin ",,Bungalow ,Forced Air ,Central Air ,False,,False,False,detached-indicator,False
418,3,4763086,Detached,Detached,Detached,3292.0,4,0,4,5,0,5.0,849990.0,2025-02-21,1060 DEPENCIER Dr ,North Grenville ,Ontario,K0G 1J0,45.0219,-75.6595,5500.0,,"Finished, Full ",,2-Storey ,Forced Air ,Central Air ,False,,False,False,detached-indicator,False
420,3,4763086,Detached,Detached,Detached,2631.0,3,0,3,2,0,2.0,800000.0,2025-02-23,2205 BEDELL Rd ,North Grenville ,Ontario,K0G 1J0,44.9848,-75.6598,91124.0,,"Crawl Space, Full ",,2-Storey ,Water ,Central Air ,False,,False,False,detached-indicator,False
422,3,4763086,"Detached, 2-Storey ",Detached,Detached,1989.0,5,0,5,0,0,0.0,500000.0,2025-02-24,1910 River Road ,North Grenville ,Ontario,K0G 1J0,45.0179,-75.7164,44000.0,,"Full, Finished ",,2-Storey ,Baseboard ,,False,,True,False,detached-indicator,False
424,3,4763086,"Detached, 2-Storey ",Detached,Detached,1590.0,3,0,3,0,0,0.0,645000.0,2025-02-28,106 Alma Street W ,North Grenville ,Ontario,K0G 1J0,45.0163,-75.6512,4998.0,,Unfinished ,,2-Storey ,Forced Air ,Central Air ,False,,True,False,detached-indicator,False
425,3,4763086,"Detached, 2-Storey ",Detached,Detached,2319.0,4,0,4,0,0,0.0,809982.0,2025-03-03,4035 DONNELLY Drive ,Rideau ,Ontario,K0G 1J0,44.9987,-75.768,1277010.0,,Unfinished ,,2-Storey ,Forced Air ,Central Air ,False,,True,False,detached-indicator,False
426,3,4763086,Detached,Detached,Detached,1300.0,3,0,3,1,0,1.0,450000.0,2025-03-06,326 Jack St ,North Grenville ,Ontario,K0G 1J0,45.0167,-75.638,7198.0,75.0,Unfinished ,,1 1/2 Storey ,Forced Air ,Central Air ,False,,False,False,detached-indicator,False
432,3,4763086,"Detached, Bungalow ",Detached,Detached,1300.0,2,0,2,0,0,0.0,580000.0,2025-03-11,503 George Street E ,North Grenville ,Ontario,K0G 1J0,45.0227,-75.646,5751.12,,"Full, Unfinished ",,Bungalow ,Forced Air ,Central Air ,False,,True,False,detached-indicator,False
433,3,4763086,"Detached, Bungalow ",Detached,Detached,1177.0,2,0,2,0,0,0.0,445000.0,2025-03-12,1165 Craig Road ,North Grenville ,Ontario,K0G 1S0,44.9538,-75.7146,46420.0,,"Full, Unfinished ",,Bungalow ,Forced Air ,,False,,True,False,detached-indicator,False
435,3,4763086,"Detached, 2-Storey ",Detached,Detached,2779.0,4,0,4,0,0,0.0,719990.0,2025-03-13,221 Douglas Hardie Street ,North Grenville ,Ontario,K0G 1J0,45.0183,-75.6644,3535.0,,Partially Finished ,,2-Storey ,Forced Air ,,False,,True,False,detached-indicator,False
436,3,4763086,"Freehold Townhouse, 2-Storey ",,Townhouse,,3,0,3,0,0,0.0,529990.0,2025-03-17,493 Patrick Street ,North Grenville ,Ontario,K0G 1J0,45.0177,-75.6681,,,"Full, Finished ",,2-Storey ,Forced Air ,,False,,True,False,townhouse-indicator,False
438,3,4763086,"Detached, 3-Storey ",Detached,Detached,2250.0,5,0,5,0,0,0.0,840000.0,2025-03-21,231 Asa Street ,North Grenville ,Ontario,K0G 1J0,45.0184,-75.6417,18834.0,,Unfinished ,,3-Storey ,Forced Air ,Central Air ,False,,True,False,detached-indicator,False
441,3,4763086,"Detached, Bungalow ",Detached,Detached,1300.0,4,0,4,0,0,0.0,640000.0,2025-03-26,201 Ferguson Street ,North Grenville ,Ontario,K0G 1J0,45.0123,-75.6375,,,"Full, Partially Finished ",,Bungalow ,Forced Air ,Central Air ,False,,True,False,detached-indicator,False
442,3,4763086,"Detached, 2-Storey ",Detached,Detached,2750.0,4,0,4,0,0,0.0,765000.0,2025-03-26,1203 Depencier Drive ,North Grenville ,Ontario,K0G 1J0,45.0224,-75.6598,3800.0,,Finished ,,2-Storey ,Forced Air ,Central Air ,False,,True,False,detached-indicator,False
443,3,4763086,"Detached, Sidesplit 3 ",Detached,Detached,900.0,3,0,3,0,0,0.0,632000.0,2025-03-28,1212 /1222 County 18 Road ,North Grenville ,Ontario,,45.0214,-75.653,,,Finished ,,Sidesplit 3 ,Baseboard ,,False,,True,False,detached-indicator,False
444,3,4763086,"Semi-Detached, 2-Storey ",Semi-Detached,Semi-Detached,1300.0,3,0,3,0,0,0.0,509500.0,2025-04-04,203 Oxford Street E ,North Grenville ,Ontario,K0G 1J0,45.0191,-75.6467,,,"Full, Partially Finished ",,2-Storey ,Forced Air ,Central Air ,False,,True,False,semi-detached-indicator,False
445,3,4763086,"Detached, 1 1/2 Storey ",Detached,Detached,900.0,3,0,3,0,0,0.0,450000.0,2025-04-04,9 George Street W ,North Grenville ,Ontario,K0G 1J0,45.0181,-75.651,,,Unfinished ,,1 1/2 Storey ,Forced Air ,,False,,True,False,detached-indicator,False
446,3,4763086,"Detached, 2-Storey ",Detached,Detached,1300.0,3,0,3,0,0,0.0,599900.0,2025-04-07,11 George Street W ,North Grenville ,Ontario,K0G 1J0,45.0181,-75.6512,8712.0,,"Apartment, Finished ",,2-Storey ,Forced Air ,Central Air ,False,,True,False,detached-indicator,False
447,3,4763086,"Detached, 2-Storey ",Detached,Detached,1750.0,2,0,2,0,0,0.0,572500.0,2025-04-11,307 Thomas Street ,North Grenville ,Ontario,K0G 1J0,45.0153,-75.6414,,,"Full, Unfinished ",,2-Storey ,Forced Air ,Central Air ,False,,True,False,detached-indicator,False
448,3,4763086,"Detached, Bungalow ",Detached,Detached,1750.0,2,0,2,0,0,0.0,758000.0,2025-04-14,22 Horizon Crescent ,North Grenville ,Ontario,K0G 1J0,45.0405,-75.6801,,,Unfinished ,,Bungalow ,Forced Air ,Central Air ,False,,True,False,detached-indicator,False
449,3,4763086,"Condo Townhouse, 2-Storey ",Condo Townhouse,Condominium,1100.0,2,0,2,0,0,0.0,405000.0,2025-04-17,Unit 7 - 125 Prescott Street ,North Grenville ,Ontario,K0G 1J0,45.0158,-75.645,,,"Finished, Full ",,2-Storey ,Forced Air ,Central Air ,False,,True,False,condo-indicator,False
450,3,4763086,"Detached, 2-Storey ",Detached,Detached,2250.0,4,0,4,0,0,0.0,540000.0,2025-04-17,9 Water Street ,North Grenville ,Ontario,K0G 1S0,44.9656,-75.6789,,,"Full, Unfinished ",,2-Storey ,Forced Air ,,False,,True,False,detached-indicator,False
451,3,4763086,Vacant Land ,Vacant Land,Condominium,,0,0,0,0,0,0.0,175000.0,2025-04-23,286 DUMBRILLE Street ,North Grenville ,Ontario,K0G 1J0,45.0164,-75.65,,,,,,,,False,,True,True,low-price-inference,False
454,3,4763086,"Semi-Detached, Bungalow ",Semi-Detached,Semi-Detached,900.0,2,0,2,0,0,0.0,665000.0,2025-04-27,138 Tradewinds Crescent ,North Grenville ,Ontario,K0G 1J0,45.0388,-75.6832,,,Finished ,,Bungalow ,Forced Air ,Central Air ,False,,True,False,semi-detached-indicator,False
455,3,4763086,"Detached, 2-Storey ",Detached,Detached,1300.0,3,0,3,0,0,0.0,520000.0,2025-04-28,303 Jack Street ,North Grenville ,Ontario,K0G 1J0,45.018,-75.6391,,,"Finished, Full ",,2-Storey ,Forced Air ,Central Air ,False,,True,False,detached-indicator,False
456,3,4763086,"Detached, Bungalow ",Detached,Detached,1750.0,3,0,3,0,0,0.0,800000.0,2025-04-29,12 Tilly Lane ,North Grenville ,Ontario,K0G 1S0,44.9624,-75.6831,,,Partially Finished ,,Bungalow ,Forced Air ,Central Air ,False,,True,False,detached-indicator,False
459,3,4763086,"Detached, Bungalow ",Detached,Detached,4250.0,6,0,6,0,0,0.0,1250000.0,2025-04-30,13 TILLY Lane ,North Grenville ,Ontario,K0G 1S0,44.9629,-75.6831,,,"Full, Finished ",,Bungalow ,Forced Air ,Central Air ,False,,True,False,detached-indicator,False
462,3,4763086,"Detached, 1 Storey/Apt ",Detached,Detached,900.0,2,0,2,0,0,0.0,369000.0,2025-05-08,113 Dodson Street ,North Grenville ,Ontario,K0G 1J0,45.0204,-75.6498,,,"Crawl Space, Other ",,1 Storey/Apt ,Baseboard ,Wall Unit(s) ,False,,True,False,detached-indicator,False
463,3,4763086,"Detached, Bungalow ",Detached,Detached,1750.0,3,0,3,0,0,0.0,1060000.0,2025-05-08,214 BLACKHORSE Drive ,North Grenville ,Ontario,K0G 1J0,45.0328,-75.6811,,,"Full, Unfinished ",,Bungalow ,Forced Air ,Central Air ,False,,True,False,detached-indicator,False
466,3,4763086,"Condo Apartment, 2-Storey ",Condo Apartment,Condominium,550.0,3,0,3,0,0,0.0,334170.0,2025-05-12,307 FIR Lane ,North Grenville ,Ontario,K0G 1J0,45.0073,-75.6416,,,,,2-Storey ,Forced Air ,,False,,True,False,condo-indicator,False
467,3,4763086,"Detached, Bungalow ",Detached,Detached,1750.0,4,0,4,0,0,0.0,1090000.0,2025-05-12,5 Comeau Court ,North Grenville ,Ontario,K0G 1J0,45.0,-75.6709,,,"Finished, Full ",,Bungalow ,Forced Air ,Central Air ,False,,True,False,detached-indicator,False
468,4,4763087,Single Family,Semi-Detached,Semi-Detached,1134.0,3,0,3,1,2,2.0,500000.0,2025-01-17,3 Apollo Court,Nova Scotia,Nova Scotia,B3M 1G9,44.6548,-63.6478,3954.0,1984.0,Fully Developed,,2 Level,"Baseboard, Furnace, Heat Pump, Hot Water, Fireplace, Ductless Cooling","Baseboard, Furnace, Heat Pump, Hot Water, Fireplace, Ductless Cooling",False,,False,False,semi-detached-indicator,False
469,4,4763087,Single Family,Detached,Detached,3301.0,5,0,5,3,1,3.5,925000.0,2025-01-20,34 Salzburg Place,Nova Scotia,Nova Scotia,B3S 0C6,44.6472,-63.6525,6549.0,2011.0,Fully Developed,,2 Level,Heat Pump,Heat Pump,False,,False,False,detached-indicator,False
470,4,4763087,Single Family,Detached,Detached,912.0,2,0,2,1,0,1.0,490000.0,2025-01-22,85 Melrose Avenue,Nova Scotia,Nova Scotia,B3N 2E6,44.6513,-63.636,6900.0,1954.0,"Full, Walkout",,1.5 Level,"Baseboard, Heat Pump","Baseboard, Heat Pump",False,,False,False,detached-indicator,False
471,4,4763087,Condominium,Condo Apartment,Condominium,1150.0,2,0,2,2,0,2.0,529900.0,2025-01-27,Unit 808 3471 Dutch Village Road,Nova Scotia,Nova Scotia,B3N 0C7,44.6552,-63.631,,2015.0,,,1 Level,Heat Pump,Heat Pump,False,,False,False,condo-indicator,False
472,4,4763087,Single Family,Detached,Detached,1139.0,3,0,3,2,0,2.0,615000.0,2025-01-31,41 Bayview Road,Nova Scotia,Nova Scotia,B3M 1N8,44.6675,-63.6403,8442.0,1969.0,"Fully Developed, Walkout",,Side Split,"Baseboard, Heat Pump, Hot Water, Ductless Cooling","Baseboard, Heat Pump, Hot Water, Ductless Cooling",False,,False,False,detached-indicator,False
473,4,4763087,Single Family,Detached,Detached,1183.0,4,0,4,3,0,3.0,590000.0,2025-02-03,3448 Rowe Avenue,Nova Scotia,Nova Scotia,B3L 4C7,44.6552,-63.6291,5000.0,1948.0,"Full, Fully Developed, Walkout",,1.5 Level,Forced Air,Forced Air,False,,False,False,detached-indicator,False
474,4,4763087,Single Family,Detached,Detached,2974.0,4,0,4,3,2,4.0,985000.0,2025-02-03,2 Trillium Terrace,Nova Scotia,Nova Scotia,B3M 3P5,44.6673,-63.6416,8522.0,,Fully Developed,,2 Level,Baseboard,Baseboard,False,,False,False,detached-indicator,False
475,4,4763087,Condominium,Condo Townhouse,Condominium,1280.0,3,0,3,1,1,1.5,385000.0,2025-02-05,26 Chadwick Place,Nova Scotia,Nova Scotia,B3M 3N2,44.6599,-63.6574,,1978.0,"Full, Fully Developed",,4 Level,"Baseboard, Furnace, Hot Water","Baseboard, Furnace, Hot Water",False,,False,False,condo-indicator,False
476,4,4763087,Single Family,Townhouse,Townhouse,1424.0,3,0,3,2,1,2.5,570000.0,2025-02-12,8 Stratford Way,Nova Scotia,Nova Scotia,B3S 1E4,44.6625,-63.6656,2625.0,1995.0,Fully Developed,,2 Level,"Baseboard, Hot Water","Baseboard, Hot Water",False,,False,False,townhouse-indicator,False
477,4,4763087,Single Family,Detached,Detached,3133.0,5,0,5,3,1,3.5,1570000.0,2025-02-12,36 Glen Eagle Way,Nova Scotia,Nova Scotia,B3N 3J1,44.6478,-63.6307,12492.0,2000.0,"Full, Fully Developed, Walkout",,2 Level,"Heat Pump, Hot Water, Fireplace, In Floor, Ductless Cooling","Heat Pump, Hot Water, Fireplace, In Floor, Ductless Cooling",False,,False,False,detached-indicator,False
478,4,4763087,Single Family,Semi-Detached,Semi-Detached,1300.0,3,0,3,1,2,2.0,550000.0,2025-02-13,113 Stoneybrook Court,Nova Scotia,Nova Scotia,B3M 4R5,44.6628,-63.6393,2502.0,2000.0,"Fully Developed, Walkout",,"2 Level, 3 Level","Furnace, Forced Air","Furnace, Forced Air",False,,False,False,semi-detached-indicator,False
479,4,4763087,Condominium,Condo Apartment,Condominium,580.0,1,0,1,1,0,1.0,352000.0,2025-02-13,Unit 523 45 Vimy Avenue,Nova Scotia,Nova Scotia,B3M 4C5,44.6627,-63.6364,,1988.0,Other,,1 Level,Baseboard,Baseboard,False,,False,False,condo-indicator,False
480,4,4763087,Condominium,Condo Apartment,Condominium,1553.0,2,0,2,2,0,2.0,475000.0,2025-02-18,Unit 210 40 Regency Park Drive,Nova Scotia,Nova Scotia,B3S 1L4,44.6578,-63.6685,,2000.0,Other,,1 Level,Baseboard,Baseboard,False,,False,False,condo-indicator,False
482,4,4763087,Single Family,Semi-Detached,Semi-Detached,1888.0,3,0,3,2,2,3.0,560000.0,2025-02-21,115 B Coronation Avenue,Nova Scotia,Nova Scotia,B3N 2M9,44.6538,-63.6426,2657.0,2023.0,"Full, Fully Developed, Walkout",,"2 Level, 3 Level",Heat Pump,Heat Pump,False,,False,False,semi-detached-indicator,False
483,4,4763087,Single Family,Detached,Detached,962.0,3,0,3,2,0,2.0,615000.0,2025-02-21,7117 Ernst Avenue,Nova Scotia,Nova Scotia,B3L 2L3,44.6509,-63.6287,4649.0,1954.0,"Full, Fully Developed",,1.5 Level,"Baseboard, Heat Pump","Baseboard, Heat Pump",False,,False,False,detached-indicator,False
484,4,4763087,Condominium,Condo Townhouse,Condominium,1681.0,3,0,3,1,1,1.5,405000.0,2025-02-26,92 Forestside Crescent,Nova Scotia,Nova Scotia,B3M 1M4,44.6582,-63.65,,1975.0,Fully Developed,,2 Level,Forced Air,Forced Air,False,,False,False,condo-indicator,False
485,4,4763087,Single Family,Semi-Detached,Semi-Detached,1630.0,4,0,4,3,1,3.5,586786.0,2025-03-03,30 Ford Street,Nova Scotia,Nova Scotia,B3M 2M7,44.6618,-63.6339,2600.0,2011.0,"Fully Developed, Walkout",,"2 Level, 3 Level",Baseboard,Baseboard,False,,False,False,semi-detached-indicator,False
486,4,4763087,Condominium,Condo Townhouse,Condominium,1386.0,4,0,4,2,1,2.5,433000.0,2025-03-06,75 Forestside Crescent,Nova Scotia,Nova Scotia,B3M 1M5,44.658,-63.6492,,1973.0,"Full, Partially Developed",,2 Level,"Forced Air, Heat Pump","Forced Air, Heat Pump",False,,False,False,condo-indicator,False
487,4,4763087,Single Family,Detached,Detached,2113.0,4,0,4,3,1,3.5,802500.0,2025-03-07,9 Lanshaw Close,Nova Scotia,Nova Scotia,B3S 1E7,44.6645,-63.6673,7522.0,1998.0,Fully Developed,,2 Level,"Baseboard, Heat Pump, Hot Water","Baseboard, Heat Pump, Hot Water",False,,False,False,detached-indicator,False
488,4,4763087,Single Family,Detached,Detached,1032.0,3,0,3,1,1,1.5,230000.0,2025-03-10,170 St. Andrews Street,Nova Scotia,Nova Scotia,B3N,44.6568,-63.6313,14690.0,,"Full, Walkout",,Bungalow,"Baseboard, Furnace","Baseboard, Furnace",False,,False,False,detached-indicator,False
490,4,4763087,Condominium,Condo Townhouse,Condominium,1208.0,3,0,3,1,1,1.5,405000.0,2025-03-21,128 Forestside Crescent,Nova Scotia,Nova Scotia,B3M 1M4,44.659,-63.6507,,1972.0,"Full, Partially Developed",,"Townhouse, 3 Level","Furnace, Forced Air, Heat Pump","Furnace, Forced Air, Heat Pump",False,,False,False,condo-indicator,False
492,4,4763087,Single Family,Detached,Detached,900.0,2,0,2,1,0,1.0,355000.0,2025-03-27,87 Melody Drive,Nova Scotia,Nova Scotia,B3M 1P9,44.6728,-63.6476,5034.0,1940.0,Crawl Space,,Bungalow,Forced Air,Forced Air,False,,False,False,detached-indicator,False
493,4,4763087,Single Family,Semi-Detached,Semi-Detached,1584.0,4,0,4,3,1,3.5,625000.0,2025-03-27,33 Stratford Way,Nova Scotia,Nova Scotia,B3S 1E5,44.6622,-63.6667,3879.0,1994.0,Fully Developed,,2 Level,"Radiant, Forced Air, Heat Pump","Radiant, Forced Air, Heat Pump",False,,False,False,semi-detached-indicator,False
494,4,4763087,Single Family,Detached,Detached,1248.0,3,0,3,1,1,1.5,550000.0,2025-03-28,7120 Ernst Avenue,Nova Scotia,Nova Scotia,B3L 2L4,44.6506,-63.6287,4950.0,1950.0,Partially Developed,,2 Level,"Furnace, Forced Air","Furnace, Forced Air",False,,False,False,detached-indicator,False
496,4,4763087,Condominium,Condo Apartment,Condominium,830.0,1,0,1,1,0,1.0,319000.0,2025-03-28,Unit 209 15 Langbrae Drive,Nova Scotia,Nova Scotia,B3M 3W5,44.671,-63.6639,,,,,1 Level,Baseboard,Baseboard,False,,False,False,condo-indicator,False
497,4,4763087,Single Family,Townhouse,Townhouse,1997.0,3,0,3,2,2,3.0,633600.0,2025-03-31,69 Bently Drive,Nova Scotia,Nova Scotia,B3S 0C4,44.6479,-63.6553,3109.0,2012.0,"Fully Developed, Other",,"Split Entry, Townhouse, 2 Level","Baseboard, Heat Pump","Baseboard, Heat Pump",False,,False,False,townhouse-indicator,False
498,4,4763087,Condominium,Condo Apartment,Condominium,843.0,2,0,2,1,0,1.0,281888.0,2025-04-03,Unit 302 36 Veronica Drive,Nova Scotia,Nova Scotia,B3N 3A3,44.6511,-63.6507,,1982.0,,,1 Level,Baseboard,Baseboard,False,,False,False,condo-indicator,False
499,4,4763087,Single Family,Detached,Detached,2420.0,3,0,3,3,1,3.5,925000.0,2025-04-04,5 Chartwell Lane,Nova Scotia,Nova Scotia,B3M 3S2,44.6642,-63.653,8221.0,1984.0,Fully Developed,,2 Level,"Baseboard, Heat Pump, Hot Water, Fireplace, In Floor","Baseboard, Heat Pump, Hot Water, Fireplace, In Floor",False,,False,False,detached-indicator,False
500,4,4763087,Condominium,Condo Apartment,Condominium,1010.0,2,0,2,1,1,1.5,336500.0,2025-04-04,Unit 106 15 Langbrae Drive,Nova Scotia,Nova Scotia,B3M 3W5,44.671,-63.6639,,1991.0,,,Multiplex,Baseboard,Baseboard,False,,False,False,condo-indicator,False
501,4,4763087,Single Family,Detached,Detached,1739.0,4,0,4,2,1,2.5,710000.0,2025-04-04,129 Deepwood Crescent,Nova Scotia,Nova Scotia,B3M 2Y5,44.6607,-63.6475,6583.0,1965.0,"Full, Fully Developed, Walkout",,3 Level,"Heat Pump, Ductless Cooling","Heat Pump, Ductless Cooling",False,,False,False,detached-indicator,False
502,4,4763087,Single Family,Detached,Detached,1423.0,3,0,3,1,1,1.5,525000.0,2025-04-10,170 Main Avenue,Nova Scotia,Nova Scotia,B3M 1B2,44.6558,-63.6423,5000.0,1952.0,"Undeveloped, Full",,2 Level,Forced Air,Forced Air,False,,False,False,detached-indicator,False
505,4,4763087,Condominium,Condo Apartment,Condominium,1048.0,2,0,2,1,0,1.0,380000.0,2025-04-15,Unit 801 105 Dunbrack Street,Nova Scotia,Nova Scotia,B3M 3G7,44.6558,-63.6507,,,,,Multiplex,"Baseboard, Hot Water","Baseboard, Hot Water",False,,False,False,condo-indicator,False
506,4,4763087,Single Family,Detached,Detached,2010.0,5,0,5,3,1,3.5,800000.0,2025-04-16,1 Lancaster Drive,Nova Scotia,Nova Scotia,B3S 1E4,44.6636,-63.6656,6735.0,1996.0,Full,,2 Level,"Baseboard, Ductless Cooling","Baseboard, Ductless Cooling",False,,False,False,detached-indicator,False
508,4,4763087,Condominium,Condo Townhouse,Condominium,1070.0,2,0,2,1,1,1.5,379500.0,2025-04-16,68 Stoneybrook Court,Nova Scotia,Nova Scotia,B3M 3J7,44.6623,-63.641,,1975.0,"Partially Developed, Walkout",,2 Level,Baseboard,Baseboard,False,,False,False,condo-indicator,False
509,4,4763087,Single Family,Detached,Detached,1316.0,4,0,4,2,1,2.5,613000.0,2025-04-17,49 Flamingo Drive,Nova Scotia,Nova Scotia,B3M 1S8,44.672,-63.6527,8200.0,1967.0,Fully Developed,,Split Entry,"Furnace, Forced Air","Furnace, Forced Air",False,,False,False,detached-indicator,False
510,4,4763087,Condominium,Condo Apartment,Condominium,1100.0,2,0,2,1,1,1.5,374000.0,2025-04-17,Unit 315 15 Knightsridge Drive,Nova Scotia,Nova Scotia,B3M 3S9,44.6699,-63.6617,,1985.0,,,Multiplex,Baseboard,Baseboard,False,,False,False,condo-indicator,False
512,4,4763087,Single Family,Semi-Detached,Semi-Detached,1056.0,3,0,3,2,0,2.0,480000.0,2025-04-23,219 Melody Drive,Nova Scotia,Nova Scotia,B3M 1P9,44.6713,-63.6508,3317.0,1985.0,Fully Developed,,2 Level,"Baseboard, Heat Pump","Baseboard, Heat Pump",False,,False,False,semi-detached-indicator,False
